Comune,Provincia,Regione,Nome,Tipo,Anno inserimento,Identificatore in OpenStreetMap,Longitudine,Latitudine
Abano Terme,PADOVA,Veneto,Cristoforo Colombo,Monumento,2011,1535382684,11.7867885,45.3482471
Abbadia Lariana,LECCO,Lombardia,Monumento all'Alpino,"Monumento commemorativo, sacrario",2015,3326001705,9.3960522,45.9102
Abbiategrasso,MILANO,Lombardia,Castello,Monumento,2009,598558462,8.9192179,45.3984929
Abbiategrasso,MILANO,Lombardia,Ponte Medievale,Monumento,2009,598558463,8.9199045,45.3979354
Acate,RAGUSA,Sicilia,Arco di San Giuseppe,Monumento,2013,2431640930,14.4933049,37.0266167999999
Acate,RAGUSA,Sicilia,Monumento ai Caduti,Monumento,2013,2432622127,14.4937704,37.0264919999999
Aci Castello,CATANIA,Sicilia,Padre Pio,Monumento,2013,2411541622,15.1630479,37.5654114
Aci Castello,CATANIA,Sicilia,San Mauro,"Monumento commemorativo, sacrario",2014,2412315848,15.1483332,37.5565772
Acireale,CATANIA,Sicilia,Monumento ai Caduti,"Monumento commemorativo, sacrario",2013,2386803037,15.1663199,37.6165414
Acqualagna,PESARO E URBINO,Marche,Monumento ai Caduti,Monumento,2015,3748086326,12.6705109,43.6169459999999
Acquapendente,VITERBO,Lazio,Piazza Girolamo Fabrizio,Monumento,2012,1732840992,11.8649936,42.7439682999999
Acquaviva delle Fonti,BARI,Puglia,Ex Sito Jupiter ACQUAVIVA,Monumento,2013,2234017208,16.8089523999999,40.9230305
Acquaviva delle Fonti,BARI,Puglia,stele sergente romano,Monumento,2014,3149002630,16.8019226999999,40.7563918999999
Acri,COSENZA,Calabria,Statua di Giovanni Battista Falcone di Acri,Monumento,2014,2715663888,16.3810243,39.4870153
Adrano,CATANIA,Sicilia,Monumento ai Caduti,Monumento,2009,469525297,14.83675,37.6609637999999
Adrano,CATANIA,Sicilia,Padre Pio,"Monumento commemorativo, sacrario",2015,2375596317,14.8269459,37.6651318999999
Agliano,ASTI,Piemonte,Monumento ai Caduti,"Monumento commemorativo, sacrario",2015,3330109789,8.24942839999999,44.7913672
Aglie',TORINO,Piemonte,Aglié ai Suoi Caduti,"Monumento commemorativo, sacrario",2014,2909468471,7.7694142,45.3621314999999
Aglie',TORINO,Piemonte,Aglié ai Suoi Caduti,"Monumento commemorativo, sacrario",2014,2909468472,7.768741,45.3633327
Aglie',TORINO,Piemonte,Broglio Giovanni,"Monumento commemorativo, sacrario",2014,2909468494,7.7682588,45.3633823999999
Aglie',TORINO,Piemonte,Madre Luisa Vaschetti,"Monumento commemorativo, sacrario",2014,2909469531,7.7665114,45.3613970999999
Aglie',TORINO,Piemonte,Partigiani dellla VI Brigata ?Giustizia e Libe,"Monumento commemorativo, sacrario",2014,2909469544,7.7952838,45.3721102
Aglie',TORINO,Piemonte,Partigiano Poletto Francesco,"Monumento commemorativo, sacrario",2014,2909469545,7.7690559,45.36305
Agnone,ISERNIA,Molise,Arco Semiurno,Monumento,2014,2930666516,14.3634068,41.805453
Agnone,ISERNIA,Molise,Libero Serafini,Monumento,2014,2929670387,14.3728728,41.808258
Agnone,ISERNIA,Molise,Porta San Nicola,Monumento,2014,2930678105,14.3669759,41.806952
Agordo,BELLUNO,Veneto,Federico Mohs,"Monumento commemorativo, sacrario",2015,3743777628,12.0356611,46.2815103
Agra,VARESE,Lombardia,Santario Madonna della Lupera,Monumento,2015,1695061648,8.7627782,46.0329812
Agrate Conturbia,NOVARA,Piemonte,Monumento ai Caduti,"Monumento commemorativo, sacrario",2010,865354107,8.5517505,45.6748643
Agrigento,AGRIGENTO,Sicilia,Statua Padre Pio,Monumento,2010,918327052,13.5830362,37.2604413999999
Agrigento,AGRIGENTO,Sicilia,Statua S. Calogero,Monumento,2010,918327898,13.6080144,37.288102
Agrigento,AGRIGENTO,Sicilia,Monumento ai Caduti della Grande Guerra,"Monumento commemorativo, sacrario",2015,3557085362,13.5909221,37.3063324
Ala,TRENTO,Trentino-Alto Adige,Madonna del Cacciatore,Monumento,2008,322071391,11.0331347,45.7904782
Ala,TRENTO,Trentino-Alto Adige,Monumento ai Caduti,Monumento,2015,3704653919,11.0664316,45.7392751
Ala,TRENTO,Trentino-Alto Adige,Armistizio del 29-10-1918,"Monumento commemorativo, sacrario",2008,322065419,11.0111764,45.8180301
Alagna Valsesia,VERCELLI,Piemonte,Ad Antonio Grober - Presidente Club Alpino Itali,Monumento,2013,2187559013,7.9373246,45.8536778
Alagna Valsesia,VERCELLI,Piemonte,Frantoio del feldspato,Monumento,2014,2183239698,7.9370333,45.8676693
Alagna Valsesia,VERCELLI,Piemonte,Monumento ai Partigiani,Monumento,2014,2187559495,7.9371983,45.8540232
Alagna Valsesia,VERCELLI,Piemonte,Pro Patria,Monumento,2014,2187559020,7.9370334,45.8543006
Alano di Piave,BELLUNO,Veneto,Croce Monte Tomba,"Monumento commemorativo, sacrario",2011,1216182670,11.8983673,45.8888401
Albanella,SALERNO,Campania,Monumento ai Caduti,"Monumento commemorativo, sacrario",2013,2462119388,15.1157512,40.4785115999999
Albettone,VICENZA,Veneto,Villa Negri Dé Salvi,Monumento,2012,2020853918,11.5854102999999,45.3581452
Albinea,REGGIO EMILIA,Emilia-Romagna,Cippo in memoria di Mario Simonazzi,"Monumento commemorativo, sacrario",2014,3207800798,10.6044184,44.6191134
Albinea,REGGIO EMILIA,Emilia-Romagna,Composizione monumentale in memoria dei caduti d,"Monumento commemorativo, sacrario",2014,2917565779,10.6024638,44.6199967
Albinea,REGGIO EMILIA,Emilia-Romagna,Lapide di Villa Rossi,"Monumento commemorativo, sacrario",2014,3207781142,10.5943378,44.6277539
Albinea,REGGIO EMILIA,Emilia-Romagna,Monumento ‘Mai pié’,"Monumento commemorativo, sacrario",2014,3207758646,10.5924628,44.6246584
Albino,BERGAMO,Lombardia,Quader,Monumento,2011,1142683679,9.7695471,45.7748094
Albisola Marina,SAVONA,Liguria,Cippo Partigiano Lino Saettone,Monumento,2015,3895372713,8.505212,44.33391
Albisola Marina,SAVONA,Liguria,Divisione Alpina Cuneese,"Monumento commemorativo, sacrario",2010,987067731,8.50459629999999,44.3316469999999
Albisola Marina,SAVONA,Liguria,Madonna della Misericordia,"Monumento commemorativo, sacrario",2016,3931068308,8.4976422,44.3213932
Albisola Superiore,SAVONA,Liguria,Monumento Alpini,Monumento,2015,3843534950,8.5108181,44.3341779
Albisola Superiore,SAVONA,Liguria,Monumento ai Caduti,Monumento,2015,3843476662,8.5093944,44.3393722
Alcara Li Fusi,MESSINA,Sicilia,Monumento ai Caduti,"Monumento commemorativo, sacrario",2016,3961386112,14.7015645,38.0214633
Alessandria,ALESSANDRIA,Piemonte,Arco di trionfo,Monumento,2015,1333674199,8.622358,44.9122251
Alessandria,ALESSANDRIA,Piemonte,Cittadella di Alessandria,Monumento,2014,2678756629,8.6044514,44.9214281
Alessandria,ALESSANDRIA,Piemonte,Cittadella di Alessandria,Monumento,2015,1332420123,8.6058482,44.9208597
Alessandria,ALESSANDRIA,Piemonte,obelisco,Monumento,2011,1012435871,8.6138619,44.9136943999999
Alessandria,ALESSANDRIA,Piemonte,Obelisco ai Caduti sul Lavoro,Monumento,2015,3407844586,8.6122587,44.906871
Alessandria,ALESSANDRIA,Piemonte,Statua di Urbano Rattazzi,Monumento,2011,1012435905,8.6161256,44.9133838999999
Alghero,SASSARI,Sardegna,El mirador Giuni Russo,Monumento,2015,2511254361,8.3206193,40.5472571999999
Alia,PALERMO,Sicilia,Croce di pietra,Monumento,2012,1797054186,13.7135697,37.7777699
Altamura,BARI,Puglia,Ex Sito Jupiter ALTAMURA CASAL SABINI,Monumento,2013,2234017153,16.6355438,40.8129648
Altare,SAVONA,Liguria,Monumento C.A.I. Altare,Monumento,2014,1479564702,8.3490906,44.3342530999999
Altare,SAVONA,Liguria,Monumento ai Caduti di Altare,"Monumento commemorativo, sacrario",2011,1540023043,8.34197449999999,44.3358818999999
Altare,SAVONA,Liguria,poggio di Napoleone,"Monumento commemorativo, sacrario",2015,3768666926,8.34953709999999,44.3392327999999
Altavilla Milicia,PALERMO,Sicilia,Chiesazza (resti della chiesa di San Michele),Monumento,2012,1879466642,13.5640218,38.0373606
Altavilla Milicia,PALERMO,Sicilia,torre Colonna,Monumento,2012,1879451804,13.5855009,38.0319855999999
Ancona,ANCONA,Marche,Monumento a Camillo Benso di Cavour,Monumento,2015,660051202,13.5165995999999,43.6169638
Ancona,ANCONA,Marche,Monumento a Giovanni Gervasoni e ai caduti,Monumento,2013,2318991746,13.5190284999999,43.6078948999999
Ancona,ANCONA,Marche,Monumento a Stamira,Monumento,2013,2503340130,13.5147949,43.6168588999999
Ancona,ANCONA,Marche,Monumento ai Caduti ed ai Martiri della Resitenza,Monumento,2010,664964938,13.505029,43.6149673
Ancona,ANCONA,Marche,Monumento ai Caduti sul Mare,Monumento,2010,664964939,13.5051881999999,43.615529
Ancona,ANCONA,Marche,Statua di Clemente XII,Monumento,2012,1707812185,13.5121704,43.6193616999999
Ancona,ANCONA,Marche,Statua di Traiano,Monumento,2012,664964949,13.5085464,43.6183345999999
Andalo,TRENTO,Trentino-Alto Adige,Ai Caduti,Monumento,2011,1525471505,11.0028366,46.1641485
Andria,BARLETTA ANDRIA TRANI,Puglia,Bersaglieri,Monumento,2009,395420012,16.3011915,41.2319881
Andria,BARLETTA ANDRIA TRANI,Puglia,Porta Sant'Andrea,Monumento,2008,308018380,16.2914089,41.2259151
Angera,VARESE,Lombardia,Angera war memorial,"Monumento commemorativo, sacrario",2013,2420979853,8.5691896,45.7706132
Anghiari,AREZZO,Toscana,Garibaldi,Monumento,2012,1853200922,12.0544404,43.5408911
Anghiari,AREZZO,Toscana,Medieval Bridge - Ponte alla Piera,Monumento,2014,3121952889,11.9897791999999,43.5866309999999
Anghiari,AREZZO,Toscana,Maesté di S.Francesco - Cappella e sorgente d'a,"Monumento commemorativo, sacrario",2014,3121958289,11.9916567999999,43.5628618
Angolo Terme,BRESCIA,Lombardia,Maurizio Berteni e Daniele Inversini,"Monumento commemorativo, sacrario",2015,3746320974,10.1273966,45.9318286999999
Angrogna,TORINO,Piemonte,Chanforan,Monumento,2013,1844971589,7.2164597,44.8510586
Antillo,MESSINA,Sicilia,Monumento ai Caduti,Monumento,2013,2508042834,15.2449584,37.9764624999999
Antillo,MESSINA,Sicilia,Campana ai dispersi di tutte le guerre,"Monumento commemorativo, sacrario",2014,2955576043,15.2426051,37.9610378
Aosta,AOSTA,Valle d'Aosta,Chiostro di Sant Orso,Monumento,2012,2031459235,7.3254385,45.7391818999999
Aosta,AOSTA,Valle d'Aosta,Collegiata di Sant Orso,Monumento,2012,2031459236,7.3252582,45.7390623
Aosta,AOSTA,Valle d'Aosta,Lupa Capitolina,Monumento,2015,2555411658,7.313284,45.7350056
Aosta,AOSTA,Valle d'Aosta,"Madonnina, Chemin Des Vignobles",Monumento,2013,2390433843,7.3048677,45.7469848
Aosta,AOSTA,Valle d'Aosta,Ponte Romano,Monumento,2013,2540945311,7.329721,45.7397341
Aosta,AOSTA,Valle d'Aosta,Porta Prétoria,Monumento,2015,848109693,7.3233354,45.7379419999999
Apiro,MACERATA,Marche,Avis Apiro,Monumento,2012,1868029810,13.133424,43.3861600999999
Apiro,MACERATA,Marche,Grotta di S. Francesco,Monumento,2012,1798133005,13.0655977,43.3269178999999
Apollosa,BENEVENTO,Campania,Epitaffio,"Monumento commemorativo, sacrario",2014,2772542622,14.7400623999999,41.0983250999999
Aquileia,UDINE,Friuli-Venezia Giulia,Basilica di Santa Maria Assunta,Monumento,2014,2990179051,13.3705926,45.7695178999999
Aquileia,UDINE,Friuli-Venezia Giulia,Mausoleo,Monumento,2012,772434004,13.3666879,45.7717742999999
Aragona,AGRIGENTO,Sicilia,Monumento al Milite ignoto,Monumento,2015,2825796673,13.6191484,37.4075604
Aragona,AGRIGENTO,Sicilia,Monumento zolfatai,Monumento,2014,2825796671,13.6205675999999,37.4078512
Arcisate,VARESE,Lombardia,San Bernardo,Monumento,2013,2517298712,8.85162839999999,45.8810068
Arcugnano,VICENZA,Veneto,Monumento ai Caduti,Monumento,2016,727458689,11.5095004,45.4692251
Arezzo,AREZZO,Toscana,A Guido Monaco - 1882,Monumento,2015,2996917699,11.8781836999999,43.4631618
Arezzo,AREZZO,Toscana,Casa del Petrarca,Monumento,2011,243481991,11.8835571,43.4660506
Arezzo,AREZZO,Toscana,Fortezza Medicea,Monumento,2015,3743205615,11.8872804999999,43.4651793
Arezzo,AREZZO,Toscana,La Chimera,Monumento,2015,3743272599,11.8757205,43.4685279999999
Arezzo,AREZZO,Toscana,Porta San Lorentino,Monumento,2010,893260358,11.8756606999999,43.4685496999999
Arezzo,AREZZO,Toscana,Pozzo di Tofano,Monumento,2015,3743247405,11.8835221,43.4661650999999
Arezzo,AREZZO,Toscana,Statua Ferdinando III d'Austria,Monumento,2010,243702992,11.8812613,43.4671534
Arezzo,AREZZO,Toscana,"Caduti del Mulinaccio, eccidio nazista 6 luglio","Monumento commemorativo, sacrario",2011,1303523411,11.8606963,43.4731893
Arezzo,AREZZO,Toscana,Petrarca,"Monumento commemorativo, sacrario",2011,1272954145,11.8851967999999,43.4663691
Argegno,COMO,Lombardia,Monumento ai Caduti,"Monumento commemorativo, sacrario",2014,2935329601,9.1291244,45.9451589999999
Arnad,AOSTA,Valle d'Aosta,Machaby - Luogo di incontro dei comandanti parti,"Monumento commemorativo, sacrario",2014,2913962787,7.743118,45.6347986999999
Arnad,AOSTA,Valle d'Aosta,Maurizio Carcereri,"Monumento commemorativo, sacrario",2014,2913962788,7.742837,45.6344749
Arpaia,BENEVENTO,Campania,Colonna di Orsini,"Monumento commemorativo, sacrario",2013,2377763740,14.5515135,41.0377869
Arpaia,BENEVENTO,Campania,Croce dei Pellegrini,"Monumento commemorativo, sacrario",2013,2398739016,14.5465056,41.0350445999999
Arpino,FROSINONE,Lazio,A Giuseppe Cesari Il Cavalier d'Arpino,"Monumento commemorativo, sacrario",2012,1829565780,13.6091418,41.6493194999999
Arpino,FROSINONE,Lazio,Franc.Xav. Bianchi Barnabita,"Monumento commemorativo, sacrario",2012,1829576192,13.6089457,41.6484464999999
Arpino,FROSINONE,Lazio,Monumento ai piloti,"Monumento commemorativo, sacrario",2012,1834056772,13.6055927,41.6469352
Arsiero,VICENZA,Veneto,Cimitero Italiano 15/18,"Monumento commemorativo, sacrario",2016,3699540141,11.3455404,45.8173637
Arzignano,VICENZA,Veneto,Monumento ai Caduti,Monumento,2013,2349289519,11.3633834999999,45.516339
Ascea,SALERNO,Campania,Palazzo Ricci,Monumento,2012,1765871153,15.1858784999999,40.1397228
Ascea,SALERNO,Campania,ruins of Velia,Monumento,2013,1783004800,15.1571962,40.1590494
Ascoli Piceno,ASCOLI PICENO,Marche,Monumento ai Caduti,Monumento,2012,1865888798,13.5753781,42.8536928999999
Ascoli Satriano,FOGGIA,Puglia,Monumento ai Caduti,Monumento,2013,665357137,15.5615104,41.2059876
Asiago,VICENZA,Veneto,Artur Edlen Von Mecenseffy,Monumento,2011,1356367528,11.4716516,45.9669426999999
Asiago,VICENZA,Veneto,Roberto Sarfatti,Monumento,2015,1371091199,11.6134585,45.8686759
Asiago,VICENZA,Veneto,Campana ai Caduti,"Monumento commemorativo, sacrario",2011,1328506169,11.5060886999999,46.0065610999999
Asiago,VICENZA,Veneto,Chiesetta degli alpini,"Monumento commemorativo, sacrario",2016,286295854,11.5226441,45.996493
Asiago,VICENZA,Veneto,Cippo austriaco,"Monumento commemorativo, sacrario",2015,1328506197,11.5085301,46.0100254
Asiago,VICENZA,Veneto,Cippo commemorativo,"Monumento commemorativo, sacrario",2015,3808065926,11.5582882,45.993451
Asiago,VICENZA,Veneto,Colonna Mozza - Cippo Italiano,"Monumento commemorativo, sacrario",2015,1328506187,11.5072171,46.0074200999999
Asiago,VICENZA,Veneto,Madonnina del Lozze,"Monumento commemorativo, sacrario",2016,1328492499,11.5215271,45.9966301999999
Asiago,VICENZA,Veneto,Monumento ai Caduti della Mina di Scalambron,"Monumento commemorativo, sacrario",2015,1446315088,11.5101464,45.9232719
Asiago,VICENZA,Veneto,Ossario,"Monumento commemorativo, sacrario",2016,286295869,11.5225974,45.9966002999999
Asiago,VICENZA,Veneto,Targa d'entrata,"Monumento commemorativo, sacrario",2015,286295852,11.5306637999999,45.9960837
Assisi,PERUGIA,Umbria,Complesso Benedettino di Santa Croce,Monumento,2012,1944979193,12.6152345,43.0820020999999
Assisi,PERUGIA,Umbria,San Francesco,Monumento,2009,541347518,12.6525003999999,43.0628508
Asti,ASTI,Piemonte,Monumento a Umberto I,Monumento,2011,1420547842,8.1977262,44.8991052
Asti,ASTI,Piemonte,Monumento a Vittorio Alfieri,Monumento,2011,1369120901,8.2070927,44.9002798
Asti,ASTI,Piemonte,Monumento a Vittorio Emanuele II,Monumento,2011,1490057314,8.20965329999999,44.8992222999999
Asti,ASTI,Piemonte,Monumento ai Caduti,Monumento,2011,1420547845,8.2137852,44.9029895999999
Asti,ASTI,Piemonte,Statua a Secondo Borgherio,Monumento,2011,1490057316,8.2086252,44.8990848999999
Asti,ASTI,Piemonte,Busto ad Alessandro Artom,"Monumento commemorativo, sacrario",2011,1490057312,8.2098677,44.8997206
Asti,ASTI,Piemonte,Busto di Annibale Vigna,"Monumento commemorativo, sacrario",2011,1490057313,8.2109045,44.8992774
Asti,ASTI,Piemonte,Colonna chiesa di san Sisti,"Monumento commemorativo, sacrario",2015,3390273232,8.2014253,44.9002679999999
Asti,ASTI,Piemonte,Monumento a Umberto Cagni,"Monumento commemorativo, sacrario",2011,1444544761,8.1916565,44.9071453
Asti,ASTI,Piemonte,Monumento ai caduti di Montemarzo,"Monumento commemorativo, sacrario",2015,3781931747,8.2579647,44.8664624
Asti,ASTI,Piemonte,Monumento ai martiri della Divisione Acqui,"Monumento commemorativo, sacrario",2013,2278903710,8.2048559,44.9117265
Asti,ASTI,Piemonte,Monumento ai Partigiani,"Monumento commemorativo, sacrario",2011,1490057315,8.20912749999999,44.8995280999999
Asti,ASTI,Piemonte,Partigiani astigiani,"Monumento commemorativo, sacrario",2015,3386126239,8.2015454,44.9053392
Asti,ASTI,Piemonte,Roseto cinerario,"Monumento commemorativo, sacrario",2014,2983241654,8.1891193,44.8941699
Asti,ASTI,Piemonte,Rotonda Pierino e Cesare Bona,"Monumento commemorativo, sacrario",2014,3034949237,8.22980259999999,44.905594
Asti,ASTI,Piemonte,Targa AVIS,"Monumento commemorativo, sacrario",2011,1490057317,8.2092156,44.8994033
Asti,ASTI,Piemonte,Tomba di Umberto Cagni,"Monumento commemorativo, sacrario",2012,1731141275,8.189403,44.8942169
Ateleta,L'AQUILA,Abruzzo,Croce di Carceres,Monumento,2014,2713135501,14.1374622999999,41.8690063
Atella,POTENZA,Basilicata,Duomo,Monumento,2014,2680994210,15.6537141,40.8766512999999
Atina,FROSINONE,Lazio,Monumento ai Caduti,Monumento,2012,1805254349,13.8019221,41.6187540999999
Aulla,MASSA-CARRARA,Toscana,Monumento partigiani,"Monumento commemorativo, sacrario",2014,1922556212,9.96838009999999,44.2088946
Aurano,VERBANIA,Piemonte,Ponte di epoca romana,Monumento,2013,2495118541,8.6117503,46.011245
Aurano,VERBANIA,Piemonte,Ponte di epoca romana,Monumento,2013,2495129337,8.6166404,46.0209301
Auronzo di Cadore,BELLUNO,Veneto,Piramide Carducci,Monumento,2014,844667854,12.242494,46.6167589
Auronzo di Cadore,BELLUNO,Veneto,Cippo Ruggero De Simone,"Monumento commemorativo, sacrario",2015,3757036777,12.2467883,46.6195270999999
Auronzo di Cadore,BELLUNO,Veneto,IL 23 REG. FANT.,"Monumento commemorativo, sacrario",2011,1356143002,12.2298995,46.6106424
Ausonia,FROSINONE,Lazio,alle vittime della guerra,"Monumento commemorativo, sacrario",2012,1832019515,13.7487660999999,41.3545493
Ausonia,FROSINONE,Lazio,Gloriosi Caduti 1935-45,"Monumento commemorativo, sacrario",2012,1832010891,13.7487726,41.3559035999999
Avezzano,L'AQUILA,Abruzzo,Incile del Fucino,Monumento,2011,1105980876,13.4500019,41.9933088
Avigliana,TORINO,Piemonte,Guerrino Nicoli,"Monumento commemorativo, sacrario",2015,3390056541,7.4007239,45.0849230999999
Ayas,AOSTA,Valle d'Aosta,Bosco delle Statue,Monumento,2013,2435150143,7.7325057,45.8428424
Ayas,AOSTA,Valle d'Aosta,Abé Gorret,"Monumento commemorativo, sacrario",2016,3936181326,7.7305739,45.8628208
Ayas,AOSTA,Valle d'Aosta,Alpini di Saint Jacques,"Monumento commemorativo, sacrario",2013,2435150131,7.7310281,45.8623455999999
Ayas,AOSTA,Valle d'Aosta,Beato Piergiorgio Frassati,"Monumento commemorativo, sacrario",2012,1822569527,7.7278607,45.8698054999999
Ayas,AOSTA,Valle d'Aosta,Favre Felice m.10-08-1966,"Monumento commemorativo, sacrario",2011,1471997118,7.7257331,45.8262098
Ayas,AOSTA,Valle d'Aosta,Memoriale vittime valanga 6 gennaio 1920,"Monumento commemorativo, sacrario",2015,3697078063,7.7222419,45.8314407
Ayas,AOSTA,Valle d'Aosta,Preghiera,"Monumento commemorativo, sacrario",2013,2433912159,7.6849379,45.8476061
Ayas,AOSTA,Valle d'Aosta,"Umberto Bernardi - Giorgio Franco, 28-1-1995","Monumento commemorativo, sacrario",2011,1418699997,7.7638456,45.8141633999999
Azzano Decimo,PORDENONE,Friuli-Venezia Giulia,Ai Caduti,Monumento,2013,2581218911,12.6724872,45.8916941
Azzate,VARESE,Lombardia,Antonio Ghiringhelli,Monumento,2015,3470521674,8.7946188,45.7815465999999
Azzone,BERGAMO,Lombardia,Sarna Giacomo,"Monumento commemorativo, sacrario",2015,3740656005,10.1272895999999,45.9595855999999
Bacoli,NAPOLI,Campania,Tempio di Diana,Monumento,2011,1503942568,14.0714422,40.8160978
Bacoli,NAPOLI,Campania,Bunker,"Monumento commemorativo, sacrario",2013,2235447711,14.0645687,40.8232124999999
Bacoli,NAPOLI,Campania,Bunker,"Monumento commemorativo, sacrario",2013,2235447893,14.0655531,40.8235758
Bagheria,PALERMO,Sicilia,Baldassare Scaduto,"Monumento commemorativo, sacrario",2015,3607746019,13.5051101,38.0888666999999
Bagheria,PALERMO,Sicilia,targa 1769 (apertura corso),"Monumento commemorativo, sacrario",2012,1875842781,13.5055216999999,38.0880717
Bagnacavallo,RAVENNA,Emilia-Romagna,Monumento ai Caduti,Monumento,2015,3796948862,11.977771,44.4162758
Bagnara Calabra,REGGIO CALABRIA,Calabria,Monumento ai Caduti,"Monumento commemorativo, sacrario",2014,2985985817,15.8035064999999,38.2858410999999
Bagnaria,PAVIA,Lombardia,La fonte di tutte le cose é l'eterna forza del,"Monumento commemorativo, sacrario",2013,2520970299,9.126058,44.8244887
Bagni di Lucca,LUCCA,Toscana,Monumento a Dante,Monumento,2014,2183388676,10.5922888,44.0615908999999
Bagni di Lucca,LUCCA,Toscana,Monumento ai Caduti,Monumento,2014,2976102724,10.5902515,44.0100696
Bagno a Ripoli,FIRENZE,Toscana,Fonte della Fata Morgana,Monumento,2016,1105931892,11.2786997,43.7317779999999
Bagno a Ripoli,FIRENZE,Toscana,Spedale del Bigallo,Monumento,2011,1137737709,11.3497942,43.7384337
Bagno di Romagna,FORLI',Emilia-Romagna,"Edicola in memoria di Damiani,Lusini,Portolani","Monumento commemorativo, sacrario",2015,3802672983,11.9983848,43.9039888
Bagno di Romagna,FORLI',Emilia-Romagna,Pellegrino Scotti,"Monumento commemorativo, sacrario",2011,1301870624,11.9679768,43.8534308999999
Bagnolo San Vito,MANTOVA,Lombardia,Monumento ai Caduti,"Monumento commemorativo, sacrario",2011,1433102262,10.8489719,45.0969515
Bagolino,BRESCIA,Lombardia,Monumento ai Caduti,Monumento,2015,2475944941,10.4649483,45.8231408999999
Bagolino,BRESCIA,Lombardia,Tita Secchi,"Monumento commemorativo, sacrario",2015,3079216030,10.4056236,45.8010243
Bairo,TORINO,Piemonte,Ai Caduti del 1915-1918,"Monumento commemorativo, sacrario",2014,2947382115,7.7569992,45.3859526999999
Balme,TORINO,Piemonte,La Montanara,"Monumento commemorativo, sacrario",2012,1763055062,7.1645476,45.3065451
Balzola,ALESSANDRIA,Piemonte,Monumento ai Caduti,Monumento,2012,1874231335,8.4024835,45.1829703
Barbarano Vicentino,VICENZA,Veneto,Monumento ai Caduti,Monumento,2010,884334854,11.5759048,45.3919566
Barbariga,BRESCIA,Lombardia,Monumento AVIS,"Monumento commemorativo, sacrario",2013,2101693841,10.0570246,45.4029804999999
Barberino di Mugello,FIRENZE,Toscana,Monumento ai Caduti,"Monumento commemorativo, sacrario",2011,1003816826,11.238159,44.0001414999999
Bardonecchia,TORINO,Piemonte,Gruppo alpini di Bardonecchia,"Monumento commemorativo, sacrario",2015,1922343336,6.7773086,45.138196
Bardonecchia,TORINO,Piemonte,Vaschetto Alberto,"Monumento commemorativo, sacrario",2014,2962334011,6.7110989,45.0693619999999
Barge,CUNEO,Piemonte,Targa partigiana,"Monumento commemorativo, sacrario",2015,3762262144,7.2830942,44.7229115
Bari,BARI,Puglia,Ala di Bronzo,Monumento,2015,3472026706,16.8744826,41.1026255
Bari,BARI,Puglia,Arco delle meraviglie,Monumento,2011,1388659237,16.8702063,41.1290703
Bari,BARI,Puglia,Colonna Infame,Monumento,2015,1438739516,16.8720956999999,41.1280545999999
Bari,BARI,Puglia,orologio solare,Monumento,2015,3472026632,16.8749225,41.1026376
Bari,BARI,Puglia,Per non dimenticare - 23/05/1992,"Monumento commemorativo, sacrario",2011,1073430305,16.8570366,41.0728671
Bari,BARI,Puglia,Sacrario Militare,"Monumento commemorativo, sacrario",2012,1733843454,16.9042382999999,41.1090031
Barletta,BARLETTA ANDRIA TRANI,Puglia,Carlo Cafiero,Monumento,2009,565693538,16.2782379,41.3200799999999
Barletta,BARLETTA ANDRIA TRANI,Puglia,Eraclio,Monumento,2014,412385823,16.2815310999999,41.3192141999999
Barzio,LECCO,Lombardia,Monumento ai caduti di Barzio,"Monumento commemorativo, sacrario",2014,1614670849,9.4686425,45.9462893999999
Bascape',PAVIA,Lombardia,Parco Enrico Mattei,"Monumento commemorativo, sacrario",2012,2022832744,9.3002488,45.3002901999999
Baselga di Pine',TRENTO,Trentino-Alto Adige,Monumento ai Caduti,"Monumento commemorativo, sacrario",2011,276248562,11.2463352,46.1310994999999
Basiliano,UDINE,Friuli-Venezia Giulia,Immacolata,Monumento,2015,3738161852,13.1028024,46.040163
Basiliano,UDINE,Friuli-Venezia Giulia,S. Stefano,Monumento,2015,3738161853,13.100625,46.0407924
Basiliano,UDINE,Friuli-Venezia Giulia,Monumento ai Caduti,"Monumento commemorativo, sacrario",2015,3738161855,13.1003241,46.0407817999999
Bassano del Grappa,VICENZA,Veneto,Bolle di Nardini,Monumento,2011,1436636260,11.7548654,45.7402720999999
Bassano del Grappa,VICENZA,Veneto,Monumento agli Alpini,Monumento,2013,2181905808,11.7326735,45.7635367
Bassano del Grappa,VICENZA,Veneto,Monumento alla Patria,Monumento,2013,1431338079,11.7382747,45.7692438999999
Bassano del Grappa,VICENZA,Veneto,Porta Delle Grazie,Monumento,2012,1421295394,11.7378978,45.7693261
Bassano del Grappa,VICENZA,Veneto,Villa Brocchi Colonna,Monumento,2011,1529283107,11.7126544999999,45.7778637999999
Bassano del Grappa,VICENZA,Veneto,Villa Cé Rezzonico,Monumento,2011,1400006042,11.7438077,45.755037
Bassano del Grappa,VICENZA,Veneto,Madonna di Fatima,"Monumento commemorativo, sacrario",2016,1140892542,11.6919771,45.8111611
Bassano del Grappa,VICENZA,Veneto,Monumento ai Ragazzi del '99,"Monumento commemorativo, sacrario",2008,300991775,11.7375437999999,45.7703392
Bassano Romano,VITERBO,Lazio,santa maria dei monti,Monumento,2010,750456837,12.1832046,42.2133177999999
Baveno,VERBANIA,Piemonte,Il monumento allo scalpellino di Baveno,"Monumento commemorativo, sacrario",2015,3365349817,8.5056556,45.9083292999999
Bedonia,PARMA,Emilia-Romagna,Croce del Pelpi,"Monumento commemorativo, sacrario",2009,26864200,9.6529937,44.5434379
Beinasco,TORINO,Piemonte,Monumento ai Caduti,Monumento,2011,1180403093,7.5873344,45.0230700999999
Belcastro,CATANZARO,Calabria,Ai Caduti,"Monumento commemorativo, sacrario",2014,2952040733,16.7843830999999,39.0174138
Belcastro,CATANZARO,Calabria,San Tommaso,"Monumento commemorativo, sacrario",2014,2952037286,16.7860729,39.0168407
Belfiore,VERONA,Veneto,Palazzo Moneta,Monumento,2011,1081120594,11.2267928,45.3758230999999
Belfiore,VERONA,Veneto,Piazza della Repubblica,Monumento,2011,475604972,11.2084471,45.3801667999999
BELLAGIO,COMO,Lombardia,Statua di Dante e Beatrice,"Monumento commemorativo, sacrario",2015,3093120875,9.25441479999999,45.9811952
Bellaria – Igea Marina,RIMINI,Emilia-Romagna,Monumento ai Caduti,"Monumento commemorativo, sacrario",2013,412382793,12.4619748,44.1488699
Bellino,CUNEO,Piemonte,Monumento ai Caduti,"Monumento commemorativo, sacrario",2011,1401105535,7.0149562,44.5803628999999
Bellino,CUNEO,Piemonte,Monumento ai caduti della Battaglia delle Alpi,"Monumento commemorativo, sacrario",2011,1401105543,7.0201745,44.5814406
Belluno,BELLUNO,Veneto,Cippo ai Caduti del 10 marzo 1945,"Monumento commemorativo, sacrario",2015,3797090468,12.1918602,46.1477720999999
Belmonte del Sannio,ISERNIA,Molise,Tomba Ovio Paccio,"Monumento commemorativo, sacrario",2015,3437981394,14.4294289,41.8202677
Bene Vagienna,CUNEO,Piemonte,Ghiacciaia,Monumento,2014,3171801318,7.8364045,44.5460642999999
Bene Vagienna,CUNEO,Piemonte,Giovanni Botero,Monumento,2014,3144460533,7.8332808,44.5454916999999
Benevento,BENEVENTO,Campania,Bue Apis,"Monumento commemorativo, sacrario",2013,2548429350,14.7701937,41.1337606
Benevento,BENEVENTO,Campania,Monumento a Dante Alighieri,"Monumento commemorativo, sacrario",2014,2772542635,14.7734168,41.1344315999999
Benevento,BENEVENTO,Campania,Monumento ad Arechi II,"Monumento commemorativo, sacrario",2014,2772631800,14.7812113,41.1299060999999
Benevento,BENEVENTO,Campania,Monumento ai Caduti,"Monumento commemorativo, sacrario",2013,2548458536,14.7828748,41.1290187
Bergamo,BERGAMO,Lombardia,Ai ragazzi del 99,Monumento,2011,1430778078,9.647619,45.6907505
Bergamo,BERGAMO,Lombardia,Camillo Benso di Cavour,Monumento,2014,2973764242,9.6690206,45.6941098
Bergamo,BERGAMO,Lombardia,Lavatoio antico,Monumento,2014,3032463440,9.6458418,45.7085969
Bergamo,BERGAMO,Lombardia,Marinai d'Italia,Monumento,2014,3227803233,9.6772287,45.6818041
Bergamo,BERGAMO,Lombardia,Monumento agli Alpini,Monumento,2014,3217241622,9.6740371,45.6922275
Bergamo,BERGAMO,Lombardia,Monumento al Bersagliere,Monumento,2012,1602123273,9.6470922,45.6938359999999
Bergamo,BERGAMO,Lombardia,Portone del Diavolo,Monumento,2012,1814515569,9.7097241,45.6888037
Bergamo,BERGAMO,Lombardia,Casa natale di Gaetano Donizetti,"Monumento commemorativo, sacrario",2014,1536656502,9.6561307,45.7062791
Bergamo,BERGAMO,Lombardia,Monumento ai Caduti,"Monumento commemorativo, sacrario",2010,529387203,9.6622337,45.6727275
Bergamo,BERGAMO,Lombardia,Monumento ai Partigiani,"Monumento commemorativo, sacrario",2015,1425711075,9.6311361,45.7259201
Bergeggi,SAVONA,Liguria,Cippo partigiani,"Monumento commemorativo, sacrario",2015,1980527689,8.4327483,44.2491551999999
Bergeggi,SAVONA,Liguria,Croce Caduti marinai 1917,"Monumento commemorativo, sacrario",2015,2984928485,8.44503609999999,44.2408973
Bergeggi,SAVONA,Liguria,Memoria caduti,"Monumento commemorativo, sacrario",2015,3087845263,8.434499,44.2459806
Bergolo,CUNEO,Piemonte,Pound,"Monumento commemorativo, sacrario",2012,2061706322,8.1860494,44.5482158
Berlingo,BRESCIA,Lombardia,Monumento ai Caduti della Prima Guerra Mondiale,"Monumento commemorativo, sacrario",2013,2580663009,10.0361233,45.5022011
Berlingo,BRESCIA,Lombardia,Monumento degli Alpini,"Monumento commemorativo, sacrario",2011,1241033492,10.0412316,45.5110061
Bertinoro,FORLI',Emilia-Romagna,Monumento a Garibaldi,Monumento,2014,3245993945,12.1357059,44.1496519
Bertinoro,FORLI',Emilia-Romagna,Giuseppe Garibaldi,"Monumento commemorativo, sacrario",2014,3245987626,12.1319497,44.1490490999999
Berzo Demo,BRESCIA,Lombardia,Monumento ai Caduti,Monumento,2015,3736746501,10.352631,46.0912891999999
Berzo Demo,BRESCIA,Lombardia,Ramponi Isidoro,"Monumento commemorativo, sacrario",2015,3736746506,10.3322838,46.0904767999999
Berzo Demo,BRESCIA,Lombardia,Taboni Ezio,"Monumento commemorativo, sacrario",2015,3736753447,10.3369155999999,46.1016418
Besate,MILANO,Lombardia,Ai Caduti,"Monumento commemorativo, sacrario",2016,4017228135,8.9687976,45.3120075
Besozzo,VARESE,Lombardia,Faro,"Monumento commemorativo, sacrario",2013,1534689203,8.6671239,45.8465591
Biancavilla,CATANIA,Sicilia,Chiesa di Montalto,Monumento,2009,459823370,14.9149727,37.6657285
Biancavilla,CATANIA,Sicilia,Parco Dell'Etna,"Monumento commemorativo, sacrario",2014,3079810741,14.9397082999999,37.6899173999999
Bibbiano,REGGIO EMILIA,Emilia-Romagna,Monumento al Parmigiano-Reggiano,Monumento,2013,2437680739,10.5047574,44.6938479
Biella,BIELLA,Piemonte,5 Croci,"Monumento commemorativo, sacrario",2015,3780557130,7.9436151,45.6392401
Biella,BIELLA,Piemonte,Cippo all Artiglieria Alpina,"Monumento commemorativo, sacrario",2015,3780554657,7.9440594,45.6379845
Biella,BIELLA,Piemonte,Giovanni Paolo II,"Monumento commemorativo, sacrario",2013,2294128153,7.9788028,45.6284561
Biella,BIELLA,Piemonte,Targa Alpini,"Monumento commemorativo, sacrario",2013,2294128162,7.976427,45.62894
Bienno,BRESCIA,Lombardia,Monumento ai Caduti,Monumento,2014,2441648735,10.2898008999999,45.9398981
Binetto,BARI,Puglia,Monumento ai Caduti,"Monumento commemorativo, sacrario",2015,3673897794,16.7106479999999,41.0249183999999
Bionaz,AOSTA,Valle d'Aosta,17 century Rascard,Monumento,2011,1404325385,7.5242263,45.9174261
Bionaz,AOSTA,Valle d'Aosta,A Dino 1933-2009,"Monumento commemorativo, sacrario",2013,2349325158,7.5163513,45.9146501999999
Bionaz,AOSTA,Valle d'Aosta,Gloria Conversi 1981-2007,"Monumento commemorativo, sacrario",2013,2349325166,7.5023842,45.9051371999999
Bionaz,AOSTA,Valle d'Aosta,Ivo Evangelisti 2000,"Monumento commemorativo, sacrario",2013,2349325167,7.5024313,45.9051681999999
Bisignano,COSENZA,Calabria,Monumento ai Caduti,Monumento,2015,324756403,16.2858279,39.5122974
Bisignano,COSENZA,Calabria,San Pio,Monumento,2015,3740277140,16.2869443999999,39.5147413999999
Bisignano,COSENZA,Calabria,statua San Francesco,Monumento,2015,3731818997,16.2840338,39.5190108999999
Bitonto,BARI,Puglia,Battaglia di Bitonto - 26 maggio 1734,Monumento,2015,1667662068,16.6915593999999,41.1139166999999
Bitonto,BARI,Puglia,Ex Sito Jupiter ALTAMURA CERASO,Monumento,2013,2187150094,16.5064961,40.9683476
Bitonto,BARI,Puglia,Cimitero Austriaco-Ungherese,"Monumento commemorativo, sacrario",2013,1770256918,16.683747,41.1089123
Bitonto,BARI,Puglia,Guglia dell'Immacolata,"Monumento commemorativo, sacrario",2014,3022293373,16.6895257999999,41.1062575999999
Bitonto,BARI,Puglia,Monumento a Tommaso Traetta,"Monumento commemorativo, sacrario",2015,3841560859,16.6913909999999,41.1083439
Bitonto,BARI,Puglia,Monumento ai Caduti,"Monumento commemorativo, sacrario",2015,3841560860,16.692425,41.107191
Bivona,AGRIGENTO,Sicilia,Cappella della Madonna della Sprescia,Monumento,2012,1904964563,13.4417849,37.6142983
Bivona,AGRIGENTO,Sicilia,Castello di Bivona,Monumento,2013,1904946728,13.4392476,37.6196480999999
Bivona,AGRIGENTO,Sicilia,Chiesa di San Giacomo,Monumento,2012,1904971039,13.4361791,37.6222739
Bivona,AGRIGENTO,Sicilia,Chiesa di San Sebastiano ed ex monastero delle c,Monumento,2012,1904964565,13.4420746,37.6152968999999
Bivona,AGRIGENTO,Sicilia,Chiesa di Santa Maria di Gesé,Monumento,2012,1904964572,13.4413131,37.6142641
Bivona,AGRIGENTO,Sicilia,Chiesa di Santa Rosalia,Monumento,2012,1904964562,13.4413638,37.6176807
Bivona,AGRIGENTO,Sicilia,Chiesa madre ed ex collegio dei gesuiti,Monumento,2012,1904964578,13.4396016,37.6181863999999
Bivona,AGRIGENTO,Sicilia,Ex chiesa di San Bartolomeo,Monumento,2012,1904964564,13.4412166,37.6150799999999
Bivona,AGRIGENTO,Sicilia,Ex chiesa di San Giovanni,Monumento,2012,1904964567,13.4399878,37.6166652
Bivona,AGRIGENTO,Sicilia,Ex chiesa di San Pietro,Monumento,2012,1904971033,13.4403606999999,37.6182670999999
Bivona,AGRIGENTO,Sicilia,Ex chiesa di San Rocco,Monumento,2012,1904971036,13.4405752,37.6187515
Bivona,AGRIGENTO,Sicilia,Portale gotico chiaramontano,Monumento,2012,1904964569,13.4417098,37.6146765
Bivongi,REGGIO CALABRIA,Calabria,Padre Pio,Monumento,2015,3723996938,16.4529804999999,38.4838280999999
Blera,VITERBO,Lazio,Grotte Penta,Monumento,2014,2936555481,12.0257164,42.2801423
Blera,VITERBO,Lazio,Monumento ai Caduti,Monumento,2014,2941742622,12.0269733999999,42.2736475
Blera,VITERBO,Lazio,Ponte del Diavolo (I sec. a.C.),Monumento,2014,2936617254,12.02779,42.2704974999999
Blera,VITERBO,Lazio,Ponte medievale,Monumento,2014,2936637879,12.0236739,42.2749814
Blera,VITERBO,Lazio,Ponte romano (III sec. a.C.),Monumento,2014,2936618066,12.0156725,42.2835404
Blera,VITERBO,Lazio,Puteale degli Anguillara,Monumento,2014,2935863560,12.0250257,42.2762628999999
Blera,VITERBO,Lazio,Torretta medievale,Monumento,2014,2936588975,12.0238789,42.2753024
Blera,VITERBO,Lazio,Tumulo etrusco del Terrone,Monumento,2014,2936556983,12.0262601999999,42.2792844
Bobbio Pellice,TORINO,Piemonte,Sibaud,Monumento,2012,1898343126,7.1131379,44.8102877999999
Bobbio Pellice,TORINO,Piemonte,Memoriale Patrol squadrone 23 U.S. Navy,"Monumento commemorativo, sacrario",2012,1835709510,7.0409045,44.7374380999999
Bojano,CAMPOBASSO,Molise,Memoriale degli emigrati in Canada,"Monumento commemorativo, sacrario",2012,1725063220,14.4725392999999,41.4766612
Bologna,BOLOGNA,Emilia-Romagna,A Garibaldi,Monumento,2014,2542122756,11.3441019,44.4995534999999
Bologna,BOLOGNA,Emilia-Romagna,Monumento ai caduti di Nassirya,Monumento,2015,1628203358,11.3457215,44.5011895999999
Bologna,BOLOGNA,Emilia-Romagna,Monumento ai carabinieri uccisi dalla banda dell,Monumento,2015,3431578923,11.396305,44.5107318
Bologna,BOLOGNA,Emilia-Romagna,Monumento ai Partigiani di Porta Lame,Monumento,2014,2962595986,11.3334278,44.5024743999999
Bologna,BOLOGNA,Emilia-Romagna,Monumento ai Partigiani di via Parisio,Monumento,2016,4018182466,11.3771524,44.4775987
Bologna,BOLOGNA,Emilia-Romagna,Monumento alla Brigata Partigiana Maiella,Monumento,2013,2597131545,11.3869652,44.486569
Bologna,BOLOGNA,Emilia-Romagna,Monumento alle Vittime della Uno Bianca,Monumento,2013,2597131556,11.3863996,44.4867454999999
Bologna,BOLOGNA,Emilia-Romagna,Palazzo di Re Enzo,Monumento,2015,3790134339,11.3426478999999,44.4945597
Bologna,BOLOGNA,Emilia-Romagna,Palazzo di Re Enzo,Monumento,2015,3790136888,11.3426586,44.494598
Bologna,BOLOGNA,Emilia-Romagna,Scalinata del Pincio,Monumento,2015,3501057284,11.3453932,44.5036403
Bologna,BOLOGNA,Emilia-Romagna,Statua del diavolo (Statue of devil),Monumento,2015,3883768543,11.3403665,44.4890983
Bologna,BOLOGNA,Emilia-Romagna,Memoriale a Nicholas Green,"Monumento commemorativo, sacrario",2015,3180723130,11.3038209,44.4983122
Bologna,BOLOGNA,Emilia-Romagna,Memoriale della Shoah,"Monumento commemorativo, sacrario",2016,3966774445,11.3458484,44.5068895
Bologna,BOLOGNA,Emilia-Romagna,Padre Pio,"Monumento commemorativo, sacrario",2015,3181507493,11.3306860999999,44.4905912999999
Bolzano,BOLZANO,Trentino-Alto Adige,Ai martiri dell'ungheria,"Monumento commemorativo, sacrario",2014,3022768340,11.3451103999999,46.5020446999999
Bolzano,BOLZANO,Trentino-Alto Adige,Marienséule,"Monumento commemorativo, sacrario",2013,2301491099,11.3544965999999,46.5014962999999
Bolzano,BOLZANO,Trentino-Alto Adige,Monumento a Salvo D'Acquisto,"Monumento commemorativo, sacrario",2014,1015718383,11.3504888,46.4954424
Bolzano,BOLZANO,Trentino-Alto Adige,Monumento ai Caduti,"Monumento commemorativo, sacrario",2012,1737338596,11.3398271,46.4957344999999
Bolzano,BOLZANO,Trentino-Alto Adige,Peter-Mayr-Denkmal,"Monumento commemorativo, sacrario",2013,2509858511,11.3536012,46.497129
Bolzano Vicentino,VICENZA,Veneto,Fixme,Monumento,2016,3947674857,11.6133258,45.578077
Bomporto,MODENA,Emilia-Romagna,Caduti di Nassirya,"Monumento commemorativo, sacrario",2015,3878047429,11.0358125,44.7367239
Bondo,TRENTO,Trentino-Alto Adige,Cimitero militare monumentale austroungarico,Monumento,2014,721098590,10.6938206,46.0009549
Bordighera,IMPERIA,Liguria,Charles Garnier,Monumento,2013,909409652,7.6741518,43.7785580999999
Bordighera,IMPERIA,Liguria,Statua di Margherita di Savoia,Monumento,2010,909407127,7.6739427,43.7781181
Bordighera,IMPERIA,Liguria,Monet,"Monumento commemorativo, sacrario",2011,1433164991,7.669548,43.7813451
Borghetto di Borbera,ALESSANDRIA,Piemonte,Sarcofago,Monumento,2014,2786048944,8.9356654,44.7277522999999
Borghetto Lodigiano,LODI,Lombardia,Monumento ai Caduti,Monumento,2015,3408716461,9.4993806,45.2138029999999
Borgo d'Ale,VERCELLI,Piemonte,Monumento ai Caduti,Monumento,2013,2385156197,8.0535159,45.3493540999999
Borgo d'Ale,VERCELLI,Piemonte,Memoriale di guerra,"Monumento commemorativo, sacrario",2014,937171201,8.0516375,45.3476746999999
Borgo Pace,PESARO E URBINO,Marche,Giuseppe Garibaldi,"Monumento commemorativo, sacrario",2012,1738315099,12.2354834,43.5951127
Borgo San Dalmazzo,CUNEO,Piemonte,Porta delle Alpi Marittime,Monumento,2011,1509008222,7.4807639,44.3240082
Borgo San Dalmazzo,CUNEO,Piemonte,Memoriale della Deportazione,"Monumento commemorativo, sacrario",2011,1496694707,7.4867636,44.326707999999996
Borgo San Lorenzo,FIRENZE,Toscana,Cippo Aglietti,"Monumento commemorativo, sacrario",2014,3203039869,11.3261787,43.9038224999999
Borgo Tossignano,BOLOGNA,Emilia-Romagna,2é Guerra Mondiale,"Monumento commemorativo, sacrario",2015,3812518385,11.6074606,44.2718741999999
Borgo Tossignano,BOLOGNA,Emilia-Romagna,Andrea Costa,"Monumento commemorativo, sacrario",2015,3811540388,11.603903,44.2725719
Borgo Tossignano,BOLOGNA,Emilia-Romagna,Croce,"Monumento commemorativo, sacrario",2015,3812531863,11.603997,44.2711145999999
Borgo Tossignano,BOLOGNA,Emilia-Romagna,Quercia,"Monumento commemorativo, sacrario",2015,3812514241,11.6026457999999,44.2711079999999
Borgone Susa,TORINO,Piemonte,Il Castlas,Monumento,2015,3364496292,7.2393163,45.1241778999999
Borgosesia,VERCELLI,Piemonte,Monumento ai Caduti,"Monumento commemorativo, sacrario",2014,3252490986,8.29276,45.7269628999999
Borno,BRESCIA,Lombardia,Cervato Silvano,"Monumento commemorativo, sacrario",2015,3729951125,10.1995103,45.9618406
Borno,BRESCIA,Lombardia,Fiora Francesco,"Monumento commemorativo, sacrario",2015,3750654059,10.2080625,45.9491433999999
Borno,BRESCIA,Lombardia,Mora Lucio,"Monumento commemorativo, sacrario",2015,3791993918,10.2234456999999,45.9415556
Borno,BRESCIA,Lombardia,Papa Giovanni Paolo II,"Monumento commemorativo, sacrario",2015,2605342488,10.1999838999999,45.9461130999999
Borno,BRESCIA,Lombardia,Papa Paolo VI,"Monumento commemorativo, sacrario",2015,3756098832,10.2061271999999,45.9476348
Borno,BRESCIA,Lombardia,Rivadossi Franco,"Monumento commemorativo, sacrario",2015,3750572371,10.2089952,45.9493134
Borno,BRESCIA,Lombardia,Rivadossi Pierino,"Monumento commemorativo, sacrario",2015,3728447709,10.1882606,45.9632695
Borno,BRESCIA,Lombardia,Tilola Giovanni,"Monumento commemorativo, sacrario",2015,3746415127,10.1779332,45.944093
Bortigali,NUORO,Sardegna,Monumento ai Caduti,"Monumento commemorativo, sacrario",2012,2055825018,8.8357601,40.2831848
Bosa,ORISTANO,Sardegna,Monumento ai Caduti,Monumento,2012,1884421158,8.49980429999999,40.2964977999999
Bosco Marengo,ALESSANDRIA,Piemonte,Battaglia del Tiglieto,"Monumento commemorativo, sacrario",2014,1919088338,8.6886873,44.8233038999999
Bosco Marengo,ALESSANDRIA,Piemonte,Papa Pio V,"Monumento commemorativo, sacrario",2015,3371831671,8.6756267,44.8220097999999
Bosio,ALESSANDRIA,Piemonte,Madonnina,Monumento,2014,2612688182,8.79234469999999,44.6194125999999
Bosio,ALESSANDRIA,Piemonte,Monumento ai Partigiani,Monumento,2014,2896697168,8.7786644,44.5659698999999
Bosio,ALESSANDRIA,Piemonte,Monumento all'Alpino,Monumento,2014,2612688183,8.7900083,44.6240876999999
Bosio,ALESSANDRIA,Piemonte,Niccolé Bruno,Monumento,2015,971066718,8.8252922,44.5454818999999
Bosio,ALESSANDRIA,Piemonte,Sacrario mart.Benedicta,"Monumento commemorativo, sacrario",2013,845837964,8.778149,44.5650606
Botticino,BRESCIA,Lombardia,Monumento ai Caduti,Monumento,2015,2345448233,10.3033105,45.5395729999999
Botticino,BRESCIA,Lombardia,Ai Caduti della Resistenza,"Monumento commemorativo, sacrario",2016,3965016605,10.3085188999999,45.5640106999999
Botticino,BRESCIA,Lombardia,Demetrio Quecchia,"Monumento commemorativo, sacrario",2015,3065959570,10.2845371,45.5441706
Botticino,BRESCIA,Lombardia,Partigiano Giovanni Busi,"Monumento commemorativo, sacrario",2016,3965016609,10.3197381,45.5744767999999
Bovegno,BRESCIA,Lombardia,Monumento agli Alpini,Monumento,2013,2378448239,10.2753983,45.7941943
Bovegno,BRESCIA,Lombardia,Monumento ai Caduti,Monumento,2016,2378461411,10.2729842,45.7931005
Bovegno,BRESCIA,Lombardia,Angelo Canossi,"Monumento commemorativo, sacrario",2015,2385861206,10.2711267999999,45.7922826
Bovegno,BRESCIA,Lombardia,Egidio Tanghetti,"Monumento commemorativo, sacrario",2015,2971155433,10.2750813,45.7962081
Bovegno,BRESCIA,Lombardia,Maria Maddalena Gatta in Terzi,"Monumento commemorativo, sacrario",2015,3627828346,10.2448272,45.8152954999999
Bovegno,BRESCIA,Lombardia,Monumento ai Caduti,"Monumento commemorativo, sacrario",2015,3151770078,10.2682409,45.7705749
Boves,CUNEO,Piemonte,Fontana del bandito,Monumento,2011,1331305669,7.5226521,44.3126792999999
Bovezzo,BRESCIA,Lombardia,Monumento ai Caduti,Monumento,2013,1768997029,10.2625501,45.6110424
Bovezzo,BRESCIA,Lombardia,Monumento ai Caduti,Monumento,2014,2939827631,10.2435227999999,45.5927906
Bovezzo,BRESCIA,Lombardia,Monumento ai Caduti,Monumento,2014,2961483760,10.2459057999999,45.5897529
Bovezzo,BRESCIA,Lombardia,Papa Giovanni XXIII,"Monumento commemorativo, sacrario",2015,3915537307,10.2600145,45.6085394999999
Bovezzo,BRESCIA,Lombardia,Partigiani Emilio Stefana e Lino Longo,"Monumento commemorativo, sacrario",2015,3264505052,10.2625065,45.6110361
Bovezzo,BRESCIA,Lombardia,Venturelli Costanzo,"Monumento commemorativo, sacrario",2015,3902348261,10.2523177,45.5990091999999
Bovolone,VERONA,Veneto,f104 starfighter,"Monumento commemorativo, sacrario",2012,1788444688,11.1182741,45.2544266
Braies,BOLZANO,Trentino-Alto Adige,1915-1916 1. Weltkrieg,"Monumento commemorativo, sacrario",2011,1362002826,12.1765857,46.6561127
Brallo di Pregola,PAVIA,Lombardia,Monumento ai Caduti,"Monumento commemorativo, sacrario",2015,3298841550,9.2823136,44.7389526999999
Brembate di Sopra,BERGAMO,Lombardia,Aido,"Monumento commemorativo, sacrario",2015,3399364396,9.5817681,45.7132791
Brembate di Sopra,BERGAMO,Lombardia,Croce Rossa,"Monumento commemorativo, sacrario",2015,3399364397,9.5818051,45.7131436
Brennero,BOLZANO,Trentino-Alto Adige,Kaiser Franz Josef I 1848-1916 - Imperatore Fran,"Monumento commemorativo, sacrario",2016,1197225787,11.4449377,46.9381283
Brentino Belluno,VERONA,Veneto,Monumento ai Caduti,"Monumento commemorativo, sacrario",2010,702202058,10.8995245,45.6866041999999
Brentonico,TRENTO,Trentino-Alto Adige,Monumento dei caduti,"Monumento commemorativo, sacrario",2010,748783526,10.9559201,45.8175512999999
Brenzone,VERONA,Veneto,Fontana Coperta,Monumento,2015,475079833,10.7575263,45.6749475
Brescello,REGGIO EMILIA,Emilia-Romagna,Busto a Dante Alighieri,Monumento,2013,2356451806,10.515616,44.9001622999999
Brescello,REGGIO EMILIA,Emilia-Romagna,Busto a Giovannino Guareschi,Monumento,2013,1769861658,10.5141510999999,44.9003871
Brescello,REGGIO EMILIA,Emilia-Romagna,Carro Armato M26 Pershing,Monumento,2013,2356451807,10.5147385,44.9008802
Brescello,REGGIO EMILIA,Emilia-Romagna,Don Camillo,Monumento,2013,1770438059,10.5156358,44.9011327999999
Brescello,REGGIO EMILIA,Emilia-Romagna,Hercules,Monumento,2012,1770440393,10.5156731,44.9015071999999
Brescello,REGGIO EMILIA,Emilia-Romagna,Locomotiva FS 835.106,Monumento,2013,2356451808,10.5145988,44.9004197
Brescello,REGGIO EMILIA,Emilia-Romagna,Peppone,Monumento,2013,2356451810,10.5158529,44.9015196
Brescia,BRESCIA,Lombardia,Cesare Battisti,Monumento,2013,2533543316,10.2202853,45.5447417999999
Brescia,BRESCIA,Lombardia,Giuseppe Cesare Abba,Monumento,2015,3663757168,10.2223373,45.5411671999999
Brescia,BRESCIA,Lombardia,Giuseppe Ragazzini,Monumento,2015,3354658348,10.2281444,45.5427840999999
Brescia,BRESCIA,Lombardia,Lodovico Pavoni,Monumento,2013,2473415647,10.2138879,45.5504758
Brescia,BRESCIA,Lombardia,Monumento a Salvo d'Acquisto,Monumento,2016,4001523435,10.2169693,45.5533495999999
Brescia,BRESCIA,Lombardia,Monumento ai Caduti,Monumento,2013,2286177335,10.2682024999999,45.5238305
Brescia,BRESCIA,Lombardia,Monumento ai Caduti,Monumento,2014,1778450295,10.2471063,45.5707911
Brescia,BRESCIA,Lombardia,Monumento ai Caduti,Monumento,2014,1810352081,10.2200529,45.5671979999999
Brescia,BRESCIA,Lombardia,Monumento ai Caduti,Monumento,2015,3527093113,10.2884264,45.5253433999999
Brescia,BRESCIA,Lombardia,Monumento ai Caduti,Monumento,2015,2680506219,10.2236081,45.5524863999999
Brescia,BRESCIA,Lombardia,Monumento ai Caduti,Monumento,2015,3548301439,10.2283601,45.5858289
Brescia,BRESCIA,Lombardia,Monumento ai Caduti,Monumento,2015,3559570343,10.2402002,45.5674059999999
Brescia,BRESCIA,Lombardia,Monumento Ai Caduti delle Dieci Giornate,Monumento,2015,2876778470,10.2264189,45.5414213999999
Brescia,BRESCIA,Lombardia,Monumento ai Caduti Senza Croce,Monumento,2013,2434517264,10.2231153,45.5504874
Brescia,BRESCIA,Lombardia,Monumento ai Militari Bresciani Caduti nei Lager,Monumento,2014,1673987255,10.2167034,45.5550331999999
Brescia,BRESCIA,Lombardia,Monumento ai Santi Faustino e Giovita,Monumento,2015,2286177336,10.2312515,45.5395796
Brescia,BRESCIA,Lombardia,Monumento al Deportato,Monumento,2015,2786541926,10.2229183999999,45.5324464999999
Brescia,BRESCIA,Lombardia,Monumento al Paracadutista,Monumento,2014,2074705839,10.2568103,45.5286231999999
Brescia,BRESCIA,Lombardia,Monumento alla Bell'Italia,Monumento,2013,708211786,10.2204794,45.5399554999999
Brescia,BRESCIA,Lombardia,Bruno Maggiori,"Monumento commemorativo, sacrario",2016,3902348254,10.2516278,45.5784055
Brescia,BRESCIA,Lombardia,Bruno Menta,"Monumento commemorativo, sacrario",2016,3921736942,10.2062554,45.5634047
Brescia,BRESCIA,Lombardia,Cristian Lorandi,"Monumento commemorativo, sacrario",2015,3066514042,10.2844244,45.5456065999999
Brescia,BRESCIA,Lombardia,Emilio Rizzi,"Monumento commemorativo, sacrario",2015,3427698223,10.2369213,45.5349374999999
Brescia,BRESCIA,Lombardia,Fausto Massimini,"Monumento commemorativo, sacrario",2015,3427698225,10.2379797,45.5348195999999
Brescia,BRESCIA,Lombardia,Francesco Filippini,"Monumento commemorativo, sacrario",2015,3427698226,10.2367881999999,45.5349787
Brescia,BRESCIA,Lombardia,Giorgio Marfurt,"Monumento commemorativo, sacrario",2015,3488656902,10.2131367,45.5568971
Brescia,BRESCIA,Lombardia,Giovan Battista Ferrari,"Monumento commemorativo, sacrario",2015,3427698227,10.2366625,45.5350224999999
Brescia,BRESCIA,Lombardia,Maik,"Monumento commemorativo, sacrario",2016,4004819392,10.2796185999999,45.5616334999999
Brescia,BRESCIA,Lombardia,Marco Biagi,"Monumento commemorativo, sacrario",2016,3071726656,10.2200827,45.5563654999999
Brescia,BRESCIA,Lombardia,Massimo Bonardi,"Monumento commemorativo, sacrario",2015,3427698228,10.2379066,45.5346903
Brescia,BRESCIA,Lombardia,Maurizio Rosa,"Monumento commemorativo, sacrario",2015,3836246357,10.1888808,45.5484538999999
Brescia,BRESCIA,Lombardia,Partigiano Piero Lanfranchi,"Monumento commemorativo, sacrario",2016,3932861277,10.2371131,45.5472851999999
Brescia,BRESCIA,Lombardia,Renzo Castagneto,"Monumento commemorativo, sacrario",2015,3427698229,10.2374712,45.5347348
Brescia,BRESCIA,Lombardia,Strage di Piazza Loggia,"Monumento commemorativo, sacrario",2014,1805093798,10.2205963,45.5397073999999
Brescia,BRESCIA,Lombardia,Tullio Bonizzardi,"Monumento commemorativo, sacrario",2015,3427698230,10.2382396,45.5344297999999
Bressanone,BOLZANO,Trentino-Alto Adige,Johannes von Nepomuk,Monumento,2013,2431410747,11.6587806,46.7167663999999
Bressanone,BOLZANO,Trentino-Alto Adige,Pius VII.,Monumento,2013,2429847459,11.6548899,46.7155089999999
Bressanone,BOLZANO,Trentino-Alto Adige,Gefallene der Weltkriege,"Monumento commemorativo, sacrario",2013,614388398,11.6572698999999,46.7160397
Bressanone,BOLZANO,Trentino-Alto Adige,Jahrtausendséule - Colonna millenaria,"Monumento commemorativo, sacrario",2013,1659559815,11.6565492,46.7150298
Bressanone,BOLZANO,Trentino-Alto Adige,Nepomuk,"Monumento commemorativo, sacrario",2013,2429313102,11.6608879,46.7143918
Bressanone,BOLZANO,Trentino-Alto Adige,Peter Mayr,"Monumento commemorativo, sacrario",2013,2434331549,11.6422367,46.6963743
Bressanone,BOLZANO,Trentino-Alto Adige,US-Army Gefallenendenkmal,"Monumento commemorativo, sacrario",2013,2555275883,11.7210696,46.7264655
Bressanvido,VICENZA,Veneto,Monumento ai Caduti,Monumento,2012,1854354431,11.6326911,45.6458609
Bricherasio,TORINO,Piemonte,Filippo Brignone,Monumento,2012,1639691375,7.3031294,44.8258212
Bricherasio,TORINO,Piemonte,Eccidio Cascina Badariotti,"Monumento commemorativo, sacrario",2012,2088961040,7.2806673,44.8194151
Bricherasio,TORINO,Piemonte,Monumento ai Caduti,"Monumento commemorativo, sacrario",2013,2241880274,7.3074216,44.8282760999999
Briga Alta,CUNEO,Piemonte,Croce Pastorelli,"Monumento commemorativo, sacrario",2015,3309940061,7.7410583,44.1628058
Briga Novarese,NOVARA,Piemonte,San Grato,Monumento,2013,1743989904,8.4563932,45.7358256999999
Brindisi,BRINDISI,Puglia,Bersaglieri,"Monumento commemorativo, sacrario",2014,3201601700,17.9451682,40.6379439
Brindisi,BRINDISI,Puglia,Cesare Augusto,"Monumento commemorativo, sacrario",2014,392267656,17.945817,40.6367605
Brindisi,BRINDISI,Puglia,Monumento Aldo Moro,"Monumento commemorativo, sacrario",2014,2714733717,17.9266776,40.6405132
Brindisi,BRINDISI,Puglia,Virgilio,"Monumento commemorativo, sacrario",2014,2717992259,17.9480241,40.6397581
Brinzio,VARESE,Lombardia,Croce delle Missioni Passioniste,Monumento,2014,2429902896,8.7870488,45.8878825
Bronte,CATANIA,Sicilia,Obelisco di Nelson,Monumento,2014,2027866804,14.8117698,37.9237028
Brugherio,MONZA E DELLA BRIANZA,Lombardia,Monumento ai Caduti,Monumento,2016,3430208181,9.29818019999999,45.5533964999999
Brugherio,MONZA E DELLA BRIANZA,Lombardia,Monumento ai Caduti,Monumento,2016,3989751995,9.2985145,45.5535769
Brugherio,MONZA E DELLA BRIANZA,Lombardia,Monumento alla Pace,Monumento,2016,3975813344,9.3028818,45.5541533
Brugherio,MONZA E DELLA BRIANZA,Lombardia,Monumento caduti della peste,Monumento,2016,3902602027,9.2865275,45.5523232999999
Brugherio,MONZA E DELLA BRIANZA,Lombardia,Colonna votiva,"Monumento commemorativo, sacrario",2016,3430231794,9.30184,45.5503617
Brusson,AOSTA,Valle d'Aosta,Casa del Conte di Challant,Monumento,2014,1767586997,7.7288854,45.7575707
Brusson,AOSTA,Valle d'Aosta,Morts pour la patrie,Monumento,2014,2973959663,7.732921,45.7585397
Brusson,AOSTA,Valle d'Aosta,Toujours plus haut,Monumento,2015,3670548464,7.7455081,45.7399454
Brusson,AOSTA,Valle d'Aosta,Chanoine Joseph Brean,"Monumento commemorativo, sacrario",2015,3670382746,7.7463756,45.7385385999999
Brusson,AOSTA,Valle d'Aosta,Frochet Romano - Brochet Vincenzo - Brochet Gius,"Monumento commemorativo, sacrario",2012,1792877466,7.7899454,45.7403918999999
Brusson,AOSTA,Valle d'Aosta,Joseph Brean,"Monumento commemorativo, sacrario",2014,2973959662,7.7327243,45.7585967999999
Brusson,AOSTA,Valle d'Aosta,Papa Giovanni Paolo II,"Monumento commemorativo, sacrario",2012,1694642597,7.7700154,45.7725079
Brusson,AOSTA,Valle d'Aosta,Targa a ricordo di Tolstoj,"Monumento commemorativo, sacrario",2012,1312922701,7.8032998,45.7545458999999
Buonvicino,COSENZA,Calabria,San Ciriaco,Monumento,2014,3027716601,15.8866809,39.6906188999999
Busachi,ORISTANO,Sardegna,Monumento ai Caduti,"Monumento commemorativo, sacrario",2014,3239583147,8.8978828,40.0332513
Bussero,MILANO,Lombardia,Monumento ai Donatori di Sangue,Monumento,2013,2469142227,9.3714183,45.5354080999999
Bussero,MILANO,Lombardia,Monumento in ricordo dei caduti delle Guerre Mon,Monumento,2012,1582578839,9.3727701,45.5373075999999
Bussero,MILANO,Lombardia,Caduti nelle Guerre,"Monumento commemorativo, sacrario",2013,2551400956,9.37044189999999,45.5309692
Busseto,PARMA,Emilia-Romagna,Giuseppe Verdi,Monumento,2015,3738764499,10.0417418,44.9810858
Bussolengo,VERONA,Veneto,Monumento ai Caduti,"Monumento commemorativo, sacrario",2012,600194754,10.8474613,45.4757576
Busto Arsizio,VARESE,Lombardia,11 Settembre,Monumento,2013,2512149117,8.85787979999999,45.6329359
Busto Arsizio,VARESE,Lombardia,Monumento al Liberty,Monumento,2015,3811106682,8.858453,45.6146587
Busto Arsizio,VARESE,Lombardia,Epigrafe a Giuseppe Garibaldi,"Monumento commemorativo, sacrario",2016,4001579863,8.85182,45.6134317
Busto Arsizio,VARESE,Lombardia,Monumento agli Alpini,"Monumento commemorativo, sacrario",2015,3067284203,8.8502013,45.6093886
Busto Arsizio,VARESE,Lombardia,Monumento agli Autieri,"Monumento commemorativo, sacrario",2015,3072596199,8.8514225,45.614209
Busto Arsizio,VARESE,Lombardia,Monumento ai Caduti,"Monumento commemorativo, sacrario",2013,1433590347,8.8543004,45.6107536999999
Busto Arsizio,VARESE,Lombardia,Monumento ai Caduti sul Lavoro,"Monumento commemorativo, sacrario",2014,3083604478,8.8542482,45.6129650999999
Busto Arsizio,VARESE,Lombardia,Monumento ai donatori del sangue,"Monumento commemorativo, sacrario",2015,2288050382,8.85117739999999,45.6136275
Busto Arsizio,VARESE,Lombardia,Monumento ai Reduci di Guerra,"Monumento commemorativo, sacrario",2014,3083609220,8.8537332,45.6088597999999
Busto Arsizio,VARESE,Lombardia,Monumento all'Operosité Bustocca,"Monumento commemorativo, sacrario",2013,2288048134,8.8470302,45.6141779
Busto Arsizio,VARESE,Lombardia,Monumento alla Resistenza e Deportazione,"Monumento commemorativo, sacrario",2015,2641290446,8.8543,45.6139352
Butera,CALTANISSETTA,Sicilia,Falconara,Monumento,2015,802302288,14.0479524999999,37.1095029999999
Buti,PISA,Toscana,Monumento Caduti della Guerra Mondiale,"Monumento commemorativo, sacrario",2012,1690649393,10.5925873999999,43.7459291999999
Buttigliera Alta,TORINO,Piemonte,Sant'Antonio di Ranverso,Monumento,2011,1473186303,7.4492259,45.0810202999999
Buttrio,UDINE,Friuli-Venezia Giulia,La Piramide,Monumento,2014,2844325312,13.3376611,46.0118867999999
Cadelbosco di Sopra,REGGIO EMILIA,Emilia-Romagna,Tomba del Partigiano,"Monumento commemorativo, sacrario",2012,1798616657,10.5722412,44.7667575999999
Cadrezzate,VARESE,Lombardia,Monumento ai Caduti,"Monumento commemorativo, sacrario",2015,3491344543,8.6429687,45.7978007999999
Cagli,PESARO E URBINO,Marche,Torrione,Monumento,2015,3887709039,12.6468589,43.5450165
Cagliari,CAGLIARI,Sardegna,Locomotiva,Monumento,2013,2309733320,9.10808089999999,39.2160327
Cagliari,CAGLIARI,Sardegna,Porta Cristina,Monumento,2014,314887206,9.1165113,39.2216977
Cagliari,CAGLIARI,Sardegna,Memoriale ai Caduti,"Monumento commemorativo, sacrario",2014,1673376308,9.1204459,39.2149767
Caines,BOLZANO,Trentino-Alto Adige,Gedenkjahr 1809-2009,"Monumento commemorativo, sacrario",2015,3502727046,11.1694726,46.6957328
Caino,BRESCIA,Lombardia,Monumento ai Caduti,Monumento,2015,2129805979,10.3167613,45.6132574
Caino,BRESCIA,Lombardia,Partigiano Giovanni Pirlo,"Monumento commemorativo, sacrario",2015,2590896332,10.3001147,45.6310416999999
Cairo Montenotte,SAVONA,Liguria,Atterraggio Col. Kittinger,"Monumento commemorativo, sacrario",2014,2836630407,8.3940178,44.3917367999999
Cairo Montenotte,SAVONA,Liguria,Cippo Battaglie napoleoniche,"Monumento commemorativo, sacrario",2014,2836290942,8.3969966,44.3951256
Cairo Montenotte,SAVONA,Liguria,Monumento ai caduti della Seconda Guerra mondiale,"Monumento commemorativo, sacrario",2011,1207818662,8.2739584,44.3986213
Cairo Montenotte,SAVONA,Liguria,Monumento ai Caduti Pianlazzo,"Monumento commemorativo, sacrario",2015,3150440245,8.3444355,44.4007580999999
Cairo Montenotte,SAVONA,Liguria,PIAN DELLA BOMBARDA,"Monumento commemorativo, sacrario",2016,3750738190,8.38074469999999,44.3923154
Calalzo di Cadore,BELLUNO,Veneto,Monumento ai Caduti,Monumento,2014,2969897918,12.3804314,46.4470412
Calatafimi,TRAPANI,Sicilia,Monumento ai Caduti,"Monumento commemorativo, sacrario",2013,2590407041,12.8616802,37.9135289
Calcinaia,PISA,Toscana,Resti del vecchio velodromo,Monumento,2015,3474190101,10.5792742,43.6718065
Calderara di Reno,BOLOGNA,Emilia-Romagna,Monumento ai morti per la patria,"Monumento commemorativo, sacrario",2015,3790606544,11.2716747,44.5658908999999
Caldogno,VICENZA,Veneto,Monumento ai caduti di Rettorgole prima e second,"Monumento commemorativo, sacrario",2013,2206342757,11.5228418,45.5915644999999
Calenzano,FIRENZE,Toscana,Fattoria di Travalle,Monumento,2012,1830888145,11.1563943,43.8812748
Calenzano,FIRENZE,Toscana,Monumento ai Caduti,Monumento,2015,3798004491,11.1675374,43.8653430999999
Calice Ligure,SAVONA,Liguria,Madonne della Guardia,Monumento,2014,2820133412,8.2705424,44.2049548
Calice Ligure,SAVONA,Liguria,Chiesa San Rocco,"Monumento commemorativo, sacrario",2014,2820309904,8.3116,44.2164945999999
Calitri,AVELLINO,Campania,Statua dell'Emigrante,Monumento,2011,470512144,15.4309014,40.901712
Calliano,TRENTO,Trentino-Alto Adige,Kaiserschuetzen 1917,Monumento,2013,64776777,11.0951798,45.9368351
Calolziocorte,LECCO,Lombardia,Chiesa di San Michele,Monumento,2012,883552654,9.4403751,45.7957715
Caltagirone,CATANIA,Sicilia,Gualtiero da Caltagirone,Monumento,2013,2351946829,14.5135439,37.2356606999999
Caltagirone,CATANIA,Sicilia,Monumenti ai Caduti,Monumento,2015,2376838722,14.516952,37.2335509999999
Caltagirone,CATANIA,Sicilia,Monumento a Luigi Sturzo,Monumento,2013,2571444179,14.5142045,37.233899
Caltagirone,CATANIA,Sicilia,Tondo Vecchio,Monumento,2013,2351946828,14.5136126999999,37.2349196999999
Caltanissetta,CALTANISSETTA,Sicilia,Monumento al Redentore,Monumento,2012,2003119598,14.0572363,37.5001840999999
Caltanissetta,CALTANISSETTA,Sicilia,Busto di Giuseppe Garibaldi,"Monumento commemorativo, sacrario",2012,2004811562,14.0611748,37.492175
Caltanissetta,CALTANISSETTA,Sicilia,Monumento a Giovanni Paolo II,"Monumento commemorativo, sacrario",2012,2002743557,14.0606328,37.4856944
Caltanissetta,CALTANISSETTA,Sicilia,Monumento ai Caduti,"Monumento commemorativo, sacrario",2012,2002743615,14.0579908,37.4816045999999
Caltanissetta,CALTANISSETTA,Sicilia,Monumento ai Caduti del Mare,"Monumento commemorativo, sacrario",2013,2181436663,14.0509423,37.4898211
Caltanissetta,CALTANISSETTA,Sicilia,Statua di Umberto I,"Monumento commemorativo, sacrario",2012,2002877738,14.0624275,37.4914241999999
Caltrano,VICENZA,Veneto,Antico Lavatoio della Contrada de Sora,"Monumento commemorativo, sacrario",2013,2481578869,11.4586232999999,45.7731901
Camairago,LODI,Lombardia,Monumento ai Caduti,Monumento,2015,3609196826,9.7250584,45.2036591999999
Camerino,MACERATA,Marche,La ruspa,Monumento,2014,2648551424,13.1521265,43.1187749999999
Camerino,MACERATA,Marche,Monumento Resistenza Antifascista,"Monumento commemorativo, sacrario",2010,817112856,13.0705413,43.1362634999999
Camerota,SALERNO,Campania,Christo,Monumento,2012,1967471831,15.3578382999999,40.0620114999999
Camino,ALESSANDRIA,Piemonte,Monumento ai Caduti,"Monumento commemorativo, sacrario",2013,2535299939,8.2684734,45.1578146
Camogli,GENOVA,Liguria,Fido,Monumento,2015,3610387991,9.15820929999999,44.3364965999999
Camogli,GENOVA,Liguria,Monumento a Simone Schiaffino,Monumento,2015,3882439973,9.15483459999999,44.3490259
Campagna,SALERNO,Campania,Ex monastero di San Martino,Monumento,2011,1090175909,15.1115048,40.6540674999999
Campagna,SALERNO,Campania,Le tre croci,"Monumento commemorativo, sacrario",2011,1305097700,15.1225898999999,40.6696577
Campagna,SALERNO,Campania,Madonna del Rosario,"Monumento commemorativo, sacrario",2011,1240732055,15.129364,40.6723860999999
Campagna,SALERNO,Campania,Monumento ai Caduti,"Monumento commemorativo, sacrario",2011,1233692139,15.1068821999999,40.6631185999999
Campagna Lupia,VENEZIA,Veneto,Capitello Madonna del Rosario,"Monumento commemorativo, sacrario",2015,3710798921,12.0992204999999,45.3524145
Campagna Lupia,VENEZIA,Veneto,Monumento ai Caduti,"Monumento commemorativo, sacrario",2015,2423330815,12.0956397,45.3546752999999
Campagna Lupia,VENEZIA,Veneto,Monumento ai partigiani,"Monumento commemorativo, sacrario",2015,3710800601,12.098912,45.3525201
Campagnano di Roma,ROMA,Lazio,Porta Romana,Monumento,2015,3319017594,12.3810569,42.1389494
Campiglia Marittima,LIVORNO,Toscana,Rocca di San Silvestro,Monumento,2013,2284288634,10.6032975,43.0861268
Campo nell'Elba,LIVORNO,Toscana,Caprili,Monumento,2010,772790916,10.1769099999999,42.7586677999999
Campobasso,CAMPOBASSO,Molise,Giuseppe Altobello,"Monumento commemorativo, sacrario",2015,3424884959,14.6825135,41.5533805999999
Campodolcino,SONDRIO,Lombardia,Nostra Signora d?Europa,Monumento,2012,1764528944,9.36227139999999,46.4177492999999
Campogalliano,MODENA,Emilia-Romagna,Monumento alla Resistenza,Monumento,2012,1999937804,10.8443668,44.691934
Campomorone,GENOVA,Liguria,Lapide partigiana,"Monumento commemorativo, sacrario",2015,3916064542,8.8327013,44.5445713
Campomorone,GENOVA,Liguria,Sacrario dei martiri di Passo Mezzano,"Monumento commemorativo, sacrario",2013,1239114591,8.8358953,44.5520013
Campomorone,GENOVA,Liguria,Targa alla visita di Pio VII,"Monumento commemorativo, sacrario",2016,3932263953,8.892657,44.5066039
Camporosso,IMPERIA,Liguria,Monumento ai Caduti,"Monumento commemorativo, sacrario",2015,3419858025,7.6277417,43.8150059999999
Canazei,TRENTO,Trentino-Alto Adige,Fausto Coppi,"Monumento commemorativo, sacrario",2012,796380013,11.8114126,46.4881372999999
Candela,FOGGIA,Puglia,Monumento ai Caduti,"Monumento commemorativo, sacrario",2010,699013408,15.5155873999999,41.1373780999999
Candia Canavese,TORINO,Piemonte,Monumento ai Caduti,Monumento,2010,1003697596,7.8852216,45.3275342
Canino,VITERBO,Lazio,Fontana dodecagonale del Vignola,Monumento,2013,1132180555,11.7496627999999,42.4659616
Cannara,PERUGIA,Umbria,Predica agli Uccelli,"Monumento commemorativo, sacrario",2016,1626000934,12.5820562,42.9785261
Cannero Riviera,VERBANIA,Piemonte,Torchio Secolare,Monumento,2011,1431210297,8.6697168,46.0229775999999
Cannole,LECCE,Puglia,Menhir Montevergine,Monumento,2015,3621639640,18.395533,40.1417708999999
Cannole,LECCE,Puglia,Menhir Santu Lasi,Monumento,2015,3621635248,18.3895206,40.1529681
Canosa di Puglia,BARLETTA ANDRIA TRANI,Puglia,M. R. Imbriani,Monumento,2016,3999453402,16.0663565999999,41.2217452
Canosa di Puglia,BARLETTA ANDRIA TRANI,Puglia,Padre Pio da Pietrelcina,Monumento,2016,4009771541,16.060922,41.223875
Canosa di Puglia,BARLETTA ANDRIA TRANI,Puglia,Sante Missioni dei P. P. Cappuccini di Puglia 19,Monumento,2016,4016837359,16.0684037999999,41.2287472
Canosa di Puglia,BARLETTA ANDRIA TRANI,Puglia,Ti saluto o croce unica speranza nostra,Monumento,2016,4016837360,16.0672885,41.2207955
Canosio,CUNEO,Piemonte,Lapide degli Alpini,"Monumento commemorativo, sacrario",2014,1829082400,7.0501857,44.4046256
Cantalupo Ligure,ALESSANDRIA,Piemonte,Monumento a Fiodor Poletaev,Monumento,2010,727719532,9.0477598,44.7143051999999
Cantalupo Ligure,ALESSANDRIA,Piemonte,Stele ai caduti,Monumento,2014,3100166044,9.032182,44.7280591999999
Cantalupo Ligure,ALESSANDRIA,Piemonte,Ai partigiani caduti,"Monumento commemorativo, sacrario",2014,3100166043,9.0287741,44.7253619999999
Cantiano,PESARO E URBINO,Marche,Palazzo Comunale,Monumento,2012,1944932019,12.6282761,43.4723929999999
Capaccio,SALERNO,Campania,Torre dell'orologio,Monumento,2012,1947141962,15.0811002999999,40.4220528999999
Capannori,LUCCA,Toscana,Acquedotto Nottolini,Monumento,2015,3814055277,10.5149758,43.8210400999999
Capannori,LUCCA,Toscana,Monumento ai Caduti,Monumento,2013,2525334212,10.5563006,43.8948839
Capannori,LUCCA,Toscana,alpini,"Monumento commemorativo, sacrario",2015,3741231053,10.5774674,43.7680379
Capannori,LUCCA,Toscana,Immaginetta o Edicola con vista panoramica,"Monumento commemorativo, sacrario",2011,1364613633,10.577056,43.7844462999999
Capoterra,CAGLIARI,Sardegna,Shangrilé,"Monumento commemorativo, sacrario",2012,1600327041,8.9828761,39.1338178999999
Caprile,BIELLA,Piemonte,Monumento ai Caduti Partigiani,"Monumento commemorativo, sacrario",2014,2867196753,8.1917586,45.7109470999999
Carbonera,TREVISO,Veneto,Capitello,Monumento,2014,2347980274,12.2905921,45.7220598999999
Carbonera,TREVISO,Veneto,Villa Maria,Monumento,2011,1424169440,12.2929730999999,45.6951943999999
Carbonia,CARBONIA IGLESIAS,Sardegna,Monumento al Minatore,Monumento,2012,1678056636,8.5255238,39.1652454999999
Carema,TORINO,Piemonte,A Ricordo dei Caduti Di Guerra 1940-1945,"Monumento commemorativo, sacrario",2015,1632928491,7.8122911,45.584245
Carignano,TORINO,Piemonte,Torre Civica,Monumento,2016,3995379180,7.6766146,44.905455
Carignano,TORINO,Piemonte,Monumento dei Caduti,"Monumento commemorativo, sacrario",2012,1839088231,7.6748793,44.9071894
Carisolo,TRENTO,Trentino-Alto Adige,Epitaffio,"Monumento commemorativo, sacrario",2014,2647352189,10.7338641999999,46.2185570999999
Carlantino,FOGGIA,Puglia,Monumento ai Caduti,Monumento,2011,1276784936,14.9760051,41.5930164999999
Carlino,UDINE,Friuli-Venezia Giulia,Monumento ai Caduti,Monumento,2014,2639387272,13.1881849,45.8029334
Carpi,MODENA,Emilia-Romagna,ex campo di concentramento di Fossoli,"Monumento commemorativo, sacrario",2008,272790772,10.9020759999999,44.8280137
Carpignano Salentino,LECCE,Puglia,Dolmen Chianca Santo Stefano,Monumento,2015,3512822506,18.3450093999999,40.2064571
Carpignano Salentino,LECCE,Puglia,Menhir Grassi,Monumento,2015,3512825067,18.3327096999999,40.2020215
Carpignano Salentino,LECCE,Puglia,Menhir presso il Casale di Stigliano,Monumento,2015,3512824188,18.3781825999999,40.1883051
Carpignano Salentino,LECCE,Puglia,Menhir Staurotomea o Croce Grande,Monumento,2015,3512820404,18.3495136999999,40.2040316
Carpignano Salentino,LECCE,Puglia,Palumbaru,Monumento,2011,1480659088,18.3427152,40.2013182999999
Carpignano Salentino,LECCE,Puglia,Monumento ai Caduti in guerra,"Monumento commemorativo, sacrario",2011,1480664756,18.3390765,40.1956471
Carpineti,REGGIO EMILIA,Emilia-Romagna,Croce,"Monumento commemorativo, sacrario",2015,3400293563,10.4827754,44.4357602999999
Carpineto Romano,ROMA,Lazio,Croce di Capreo,Monumento,2010,828432950,13.0694204,41.5865136999999
Carrara,MASSA-CARRARA,Toscana,Monumento dell'eccidio di Bergiola,Monumento,2013,2130933884,10.1246554999999,44.0670246
Carrara,MASSA-CARRARA,Toscana,Scultura Dunchi,Monumento,2014,2623907432,10.0628603,44.0550604
Carrara,MASSA-CARRARA,Toscana,Alberto Meschi,"Monumento commemorativo, sacrario",2011,1136375648,10.1008689,44.0790183
Carrara,MASSA-CARRARA,Toscana,Cippo della scuola di Bergiola Foscalina,"Monumento commemorativo, sacrario",2013,2130931007,10.1219625,44.0659510999999
Carrara,MASSA-CARRARA,Toscana,La donna nella Resistenza,"Monumento commemorativo, sacrario",2011,1136380155,10.0966693,44.0768952999999
Carrara,MASSA-CARRARA,Toscana,Lapide a Fabbiani,"Monumento commemorativo, sacrario",2013,2130932166,10.1247197999999,44.0665351
Carrara,MASSA-CARRARA,Toscana,Monumento a Giudice,"Monumento commemorativo, sacrario",2013,2130929837,10.1221181,44.065955
Carre',VICENZA,Veneto,Monumento all'Arma dei Carabinieri,Monumento,2015,3442901156,11.4586261,45.7445491
Carugo,COMO,Lombardia,Monumento ai Caduti,Monumento,2015,3879734312,9.19485809999999,45.7096792999999
Casal Cermelli,ALESSANDRIA,Piemonte,Cappelletta in onore della Madonna di Fatima,"Monumento commemorativo, sacrario",2012,1864244157,8.6350365,44.8107151
Casale Monferrato,ALESSANDRIA,Piemonte,Croce ai caduti della prima guerra mondiale,Monumento,2012,1654574197,8.4632761,45.1314514
Casale Monferrato,ALESSANDRIA,Piemonte,Monumento a Giovanni Lanza,Monumento,2010,946533625,8.4571565,45.1337375
Casale Monferrato,ALESSANDRIA,Piemonte,Monumento a Urbano Rattazzi,Monumento,2011,951519433,8.4519689,45.1364434999999
Casale Monferrato,ALESSANDRIA,Piemonte,Monumento ai Caduti,Monumento,2010,945101759,8.4583625,45.1330381
Casale Monferrato,ALESSANDRIA,Piemonte,Monumento ai caduti della seconda guerra mondial,Monumento,2012,1654574200,8.4628975,45.1314939
Casale Monferrato,ALESSANDRIA,Piemonte,Busto di Ottavio Marchino,"Monumento commemorativo, sacrario",2010,987470199,8.4482563,45.1302675
Casale Monferrato,ALESSANDRIA,Piemonte,Lapide a Giovanni Lanza,"Monumento commemorativo, sacrario",2014,1741725646,8.4534506,45.1377945999999
Casale Monferrato,ALESSANDRIA,Piemonte,Lapide a Giuseppe Pavia,"Monumento commemorativo, sacrario",2012,1714618570,8.4452186,45.1361885
Casale Monferrato,ALESSANDRIA,Piemonte,Lapide Natal Palli,"Monumento commemorativo, sacrario",2012,1246879437,8.4497105,45.1334895
Casale Monferrato,ALESSANDRIA,Piemonte,Monumento agli Aviatori Monferrini,"Monumento commemorativo, sacrario",2010,951785682,8.4479412,45.1227385999999
Casale sul Sile,TREVISO,Veneto,Monumento dei Caduti,"Monumento commemorativo, sacrario",2014,1447872778,12.3254907,45.5977504
Casalino,NOVARA,Piemonte,Croci dei Sette Martiri di Casalino,"Monumento commemorativo, sacrario",2015,3724786262,8.5346705,45.3766502
Casalino,NOVARA,Piemonte,Monumento alla Resistenza,"Monumento commemorativo, sacrario",2015,3724786271,8.5343888,45.3765353
Casalino,NOVARA,Piemonte,Monumento del 150é dell'Unité d'Italia,"Monumento commemorativo, sacrario",2015,3724800829,8.50363789999999,45.3889381999999
Casalmaiocco,LODI,Lombardia,Monumento ai Caduti,Monumento,2015,3574165941,9.373366,45.3537041
Casalvolone,NOVARA,Piemonte,Monumento ai Caduti,"Monumento commemorativo, sacrario",2015,1783560932,8.4624919,45.3995096
Casanova Lerrone,SAVONA,Liguria,Stele di Rainer Kriester,Monumento,2013,2326541879,8.042411,44.0401695999999
Casarano,LECCE,Puglia,caduti in guerra,Monumento,2014,3252507265,18.1631615999999,40.0075432
Casarano,LECCE,Puglia,Daniela e Paola Bastianutti,Monumento,2013,2364181704,18.1623319,40.003599
Casarano,LECCE,Puglia,In hoc signo vinces,"Monumento commemorativo, sacrario",2011,1352485618,18.1585059999999,40.0136477
Casarano,LECCE,Puglia,In hoc signo vinces,"Monumento commemorativo, sacrario",2011,1352485625,18.1678628999999,40.0119837
Casarano,LECCE,Puglia,In hoc signo vinces,"Monumento commemorativo, sacrario",2013,1352485624,18.1644356,40.0116562999999
Casarano,LECCE,Puglia,Papa Giovanni Paolo IIé,"Monumento commemorativo, sacrario",2014,1353015286,18.1615787,40.0169792
Casarano,LECCE,Puglia,San Francesco d'Assisi,"Monumento commemorativo, sacrario",2013,2202403035,18.1649281999999,40.0058164
Casarano,LECCE,Puglia,San Francesco d'Assisi,"Monumento commemorativo, sacrario",2013,1351813302,18.1643428,40.0065242
Casarano,LECCE,Puglia,vittime civili di guerra,"Monumento commemorativo, sacrario",2013,1346788076,18.1556284,40.0135586
Casarsa della Delizia,PORDENONE,Friuli-Venezia Giulia,Monumento ai Caduti,"Monumento commemorativo, sacrario",2012,1921984393,12.8423794,45.9574015
Casatenovo,LECCO,Lombardia,Graziella Fomagalli,Monumento,2014,2950263734,9.3120663,45.6985798999999
Casciago,VARESE,Lombardia,Casa di Stefano Stampa,"Monumento commemorativo, sacrario",2009,357199471,8.763388,45.8247129
CASCIANA TERME LARI,PISA,Toscana,Torre Medioevale,Monumento,2014,3081497620,10.5941724,43.5313635999999
Cascina,PISA,Toscana,Monumento ai Caduti,Monumento,2013,2430753933,10.5476712999999,43.6760145
Casei Gerola,PAVIA,Lombardia,45é Parallelo -,Monumento,2015,3794440332,8.9266472,45.0063845
Casei Gerola,PAVIA,Lombardia,Cappella del Bottigella,Monumento,2015,3794478009,8.92673289999999,45.006163
Casei Gerola,PAVIA,Lombardia,L'aratro - Pietro Bisio,Monumento,2015,3794440279,8.9263413,45.0064184
Casei Gerola,PAVIA,Lombardia,La filatrice - Pietro Bisio,Monumento,2015,3794451524,8.92799089999999,45.0058299
Casei Gerola,PAVIA,Lombardia,Monumento ai caduti di tutte le guerre,Monumento,2015,3794478010,8.9267758,45.0063298999999
Casei Gerola,PAVIA,Lombardia,The ground crying help - Gianni Bailo,Monumento,2015,3794439087,8.92650489999999,45.0063968999999
Caserta,CASERTA,Campania,Monumento a Luigi Vanvitelli,Monumento,2013,2116350664,14.3322042,41.0753437999999
Casina,REGGIO EMILIA,Emilia-Romagna,Casa Cantoniera,Monumento,2015,3834753088,10.4990387999999,44.5099615999999
Casina,REGGIO EMILIA,Emilia-Romagna,Cippo di Vercallo,"Monumento commemorativo, sacrario",2011,1109757264,10.4576671,44.5477504999999
Casola Valsenio,RAVENNA,Emilia-Romagna,Monumento alla resistenza,Monumento,2013,2543958262,11.5796926,44.2182048
Casorate Primo,PAVIA,Lombardia,cimitero,"Monumento commemorativo, sacrario",2012,1912824173,9.01996879999999,45.317849
Casorzo,ASTI,Piemonte,Monumento ai Caduti,"Monumento commemorativo, sacrario",2014,3152507664,8.3395313,45.0226393
Cassano all'Ionio,COSENZA,Calabria,Giuseppe Troccoli (busto marmoreo),Monumento,2014,3013692690,16.3351384,39.7800803
Cassano d'Adda,MILANO,Lombardia,Statua del Sacro Cuore,"Monumento commemorativo, sacrario",2012,1952497075,9.5347773,45.5288901999999
Cassano delle Murge,BARI,Puglia,Monumento a ...,Monumento,2014,2642336800,16.7714447,40.8919155
Cassano Magnago,VARESE,Lombardia,Statua di Padre Pio,"Monumento commemorativo, sacrario",2015,2361617567,8.8264654,45.6759267999999
Cassaro,SIRACUSA,Sicilia,Guglia di Cassaro (obelisco),Monumento,2014,3077643039,14.9466901,37.104472
Cassaro,SIRACUSA,Sicilia,Monumento ai Caduti,Monumento,2014,3077643035,14.9474383,37.1060646999999
Cassina de' Pecchi,MILANO,Lombardia,Monumento ai Radioamatori,Monumento,2013,2301428873,9.36752929999999,45.5216303999999
Cassina Valsassina,LECCO,Lombardia,Percorso delle brigate Garibaldine Lombardia,"Monumento commemorativo, sacrario",2011,1376310947,9.4940291,45.9021850999999
Cassinetta di Lugagnano,MILANO,Lombardia,Statua di San Carlo Borromeo,Monumento,2013,2495039454,8.909765,45.4259665
Cassino,FROSINONE,Lazio,Croce Polacca,"Monumento commemorativo, sacrario",2012,1736662599,13.7905484,41.4996397
Cassino,FROSINONE,Lazio,Monumento Ai caduti Seconda Guerra Mondiale,"Monumento commemorativo, sacrario",2013,1751695159,13.8347207999999,41.4435829
Cassino,FROSINONE,Lazio,Monumento Cauduti Polacchi,"Monumento commemorativo, sacrario",2012,1736656212,13.8024654,41.4973681999999
Cassola,VICENZA,Veneto,Villa Cé Baroncello,Monumento,2011,1492747668,11.7545571,45.7595154999999
Castagneto Carducci,LIVORNO,Toscana,Obelisco del poeta Giosué Carducci,"Monumento commemorativo, sacrario",2011,609211542,10.5596723,43.2259948
Castagneto Carducci,LIVORNO,Toscana,Tomba al Cane,"Monumento commemorativo, sacrario",2012,1942555342,10.6082854,43.1196044
Casteggio,PAVIA,Lombardia,Memoriale Strage Famiglia Cignoli 20 Maggio 1859,"Monumento commemorativo, sacrario",2010,602459872,9.14054,45.0210502999999
Castegnero,VICENZA,Veneto,Monumento ai Caduti,Monumento,2010,715675749,11.5760339,45.4395486
Castegnero,VICENZA,Veneto,Monumento ai Caduti di Castegnero,Monumento,2010,864681384,11.6008534,45.4374366999999
Castel Bolognese,RAVENNA,Emilia-Romagna,Monumento alla Brigata Ebraica,Monumento,2014,2700544033,11.7453818,44.3090588999999
Castel Bolognese,RAVENNA,Emilia-Romagna,Monumento nazionale ai caduti per la bonifica de,Monumento,2014,2688379375,11.7963936999999,44.3155418999999
Castel del Rio,BOLOGNA,Emilia-Romagna,monumento ai partigiani caduti e Palmieri,Monumento,2015,3382101907,11.4433025,44.2383872999999
Castel di Lama,ASCOLI PICENO,Marche,Monumento ai Caduti,"Monumento commemorativo, sacrario",2010,602785425,13.7069622,42.873781
Castel di Lama,ASCOLI PICENO,Marche,Monumento al Colonnello Mario Robert,"Monumento commemorativo, sacrario",2010,602806635,13.7114361,42.8715794
Castel Maggiore,BOLOGNA,Emilia-Romagna,Portale di ingresso delle Piazze,Monumento,2014,2952468836,11.3577276,44.5684084
Castel Maggiore,BOLOGNA,Emilia-Romagna,Monumento ai Caduti,"Monumento commemorativo, sacrario",2009,357300737,11.3444933,44.5831193
Castel Maggiore,BOLOGNA,Emilia-Romagna,Monumento ai caduti di Sabbiuno,"Monumento commemorativo, sacrario",2011,1540659065,11.3898233,44.5781295
Castel San Pietro Romano,ROMA,Lazio,Rocca dei Colonna,Monumento,2011,1417976173,12.8961004,41.8462607
Castelbuono,PALERMO,Sicilia,Monumento ai Caduti,"Monumento commemorativo, sacrario",2013,2333632704,14.0872755,37.9309931
Castelcivita,SALERNO,Campania,Monumemto ai caduti,"Monumento commemorativo, sacrario",2012,1820585991,15.1990213,40.4838097
Castelfidardo,ANCONA,Marche,Monumento nazionale delle Marche,Monumento,2014,2947494339,13.5509685999999,43.4665092999999
Castelfranco Veneto,TREVISO,Veneto,Statua del Giorgione,Monumento,2015,3917294600,11.9270441,45.6729264
Castelfranco Veneto,TREVISO,Veneto,Villa Bolasco,Monumento,2011,1421782129,11.9342937,45.6727356
Castell'Arquato,PIACENZA,Emilia-Romagna,Battistero di Vigolo Marchese,Monumento,2014,2973181517,9.8404151,44.8783918999999
Castell'Arquato,PIACENZA,Emilia-Romagna,"Casa Medievale, Vicolo San Pietro 3",Monumento,2014,2972682227,9.8688678,44.8529875999999
Castell'Arquato,PIACENZA,Emilia-Romagna,Chiesa Collegiata di Santa Maria Assunta,Monumento,2014,2972698986,9.8672424,44.8509670999999
Castell'Arquato,PIACENZA,Emilia-Romagna,Chiesa di San Giovanni Battista di Vigolo Marche,Monumento,2014,2973181515,9.8402437,44.8782209
Castell'Arquato,PIACENZA,Emilia-Romagna,Chiesa di Santo Stefano,Monumento,2014,2972677424,9.8683608,44.8516783
Castell'Arquato,PIACENZA,Emilia-Romagna,Conservatorio Guarnieri Villaggi,Monumento,2014,2972701906,9.8646137,44.849927
Castell'Arquato,PIACENZA,Emilia-Romagna,Ex Chiesa della Santissima Annunciata,Monumento,2014,2972693817,9.86569199999999,44.8497406999999
Castell'Arquato,PIACENZA,Emilia-Romagna,Ex Chiesa della Santissima Trinité,Monumento,2014,2972681747,9.8684654,44.8512448
Castell'Arquato,PIACENZA,Emilia-Romagna,Ex Chiesa di San Giacomo,Monumento,2014,2972682559,9.8692512,44.8526633
Castell'Arquato,PIACENZA,Emilia-Romagna,Ex Chiesa di San Nicolé,Monumento,2014,2972701907,9.8645922,44.8501285999999
Castell'Arquato,PIACENZA,Emilia-Romagna,Fontane del Duca,Monumento,2014,2972646388,9.8687738,44.8522526
Castell'Arquato,PIACENZA,Emilia-Romagna,Mura di Cima,Monumento,2014,2972644532,9.8637352,44.8492991
Castell'Arquato,PIACENZA,Emilia-Romagna,Ospedale Santo Spirito,Monumento,2014,2972685437,9.86797299999999,44.8514518
Castell'Arquato,PIACENZA,Emilia-Romagna,Palazzo del Duca,Monumento,2014,2972649026,9.8685861,44.8522735
Castell'Arquato,PIACENZA,Emilia-Romagna,Palazzo del Podesté,Monumento,2014,2972698980,9.8670466,44.8513056999999
Castell'Arquato,PIACENZA,Emilia-Romagna,Palazzo Grossi,Monumento,2014,2972640127,9.8645145,44.8495903999999
Castell'Arquato,PIACENZA,Emilia-Romagna,Palazzo Stradivari,Monumento,2014,2972683893,9.8682535,44.8518741999999
Castell'Arquato,PIACENZA,Emilia-Romagna,Porta di Monteguzzo,Monumento,2014,2972683213,9.8700023,44.8530208
Castell'Arquato,PIACENZA,Emilia-Romagna,Porta di Sasso,Monumento,2014,2972644477,9.86542369999999,44.8495866
Castell'Arquato,PIACENZA,Emilia-Romagna,Torrione Farnesiano,Monumento,2014,2972646387,9.8689643,44.8521252
Castellammare di Stabia,NAPOLI,Campania,Arco di San Catello,Monumento,2012,1632761612,14.4812236999999,40.6956435999999
Castellammare di Stabia,NAPOLI,Campania,Monumento ai Caduti,Monumento,2012,1632761745,14.4818029999999,40.6960462999999
Castellammare di Stabia,NAPOLI,Campania,Padre Pio,Monumento,2015,3868406734,14.4936054999999,40.7167603999999
Castellammare di Stabia,NAPOLI,Campania,Real Teatro Francesco I,Monumento,2012,1632687949,14.4797226,40.6920936
Castellania,ALESSANDRIA,Piemonte,Fausto e Serse Coppi,"Monumento commemorativo, sacrario",2015,2994441661,8.9302737,44.7992982
Castelleone di Suasa,ANCONA,Marche,Monumento ai Caduti,Monumento,2008,261626872,12.9764002,43.6072265
Castello Cabiaglio,VARESE,Lombardia,Madonnina,Monumento,2014,2697801357,8.7718589,45.8683162
Castello Cabiaglio,VARESE,Lombardia,Salvatore Furia,"Monumento commemorativo, sacrario",2014,2697801358,8.77020669999999,45.8684944999999
Castello di Godego,TREVISO,Veneto,Barco Mocenigo,Monumento,2011,1416427278,11.8808159999999,45.6935873999999
Castello di Godego,TREVISO,Veneto,Villa Enrico di Sardagna,Monumento,2011,1416427335,11.8742929,45.6944865999999
Castello Tesino,TRENTO,Trentino-Alto Adige,Memoriale Don Italo Girardi,Monumento,2015,3686101725,11.6356115,46.1512012
Castelmagno,CUNEO,Piemonte,Madonna,Monumento,2012,1779696778,7.1705876,44.4020177
Castelnovo Ne' Monti,REGGIO EMILIA,Emilia-Romagna,Monumento Battaglia Sparavalle,"Monumento commemorativo, sacrario",2015,3711620713,10.3470850999999,44.4129764999999
Castelnuovo Berardenga,SIENA,Toscana,Certosa di Pontignano,Monumento,2012,2046517441,11.359515,43.3692256
Castelnuovo Berardenga,SIENA,Toscana,Piramide di Montaperti,"Monumento commemorativo, sacrario",2011,496114549,11.4394791,43.3153109
Castelnuovo della Daunia,FOGGIA,Puglia,Monumento a Luigi Zuppetta,Monumento,2013,2333015781,15.1198435999999,41.581519
Castelnuovo della Daunia,FOGGIA,Puglia,Monumento ai Caduti,"Monumento commemorativo, sacrario",2013,601180716,15.1186899,41.5829252999999
Castelnuovo Rangone,MODENA,Emilia-Romagna,Monumento al maiale,"Monumento commemorativo, sacrario",2013,2405129553,10.9398263999999,44.5488574
Castelplanio,ANCONA,Marche,Monumento ai Caduti,Monumento,2013,2461480556,13.0817098,43.4940282999999
Castelseprio,VARESE,Lombardia,Tomba di Renato Bazzoni,"Monumento commemorativo, sacrario",2015,3568841795,8.8633024,45.7295959
Castelvetrano,TRAPANI,Sicilia,Monumento all'olivicultore Il Sicano,Monumento,2009,465242664,12.8102784,37.6617803999999
Castelvetrano,TRAPANI,Sicilia,Monumento ai Caduti,"Monumento commemorativo, sacrario",2014,3253851849,12.7957275999999,37.6832536
Castiglion Fiorentino,AREZZO,Toscana,Carro Armato,Monumento,2014,2882942054,11.922217,43.3441394999999
Castiglione del Lago,PERUGIA,Umbria,Monumento ai Caduti,"Monumento commemorativo, sacrario",2011,1411710430,12.0498966,43.0758226
Castiglione della Pescaia,GROSSETO,Toscana,Monumento ai Caduti,"Monumento commemorativo, sacrario",2010,742387445,10.8802369999999,42.7620799999999
Castione della Presolana,BERGAMO,Lombardia,L'Puntasel,Monumento,2014,2440943966,10.0334803,45.9185372
Castions di Strada,UDINE,Friuli-Venezia Giulia,Colonna dell'Immacolata Concezione,Monumento,2014,2693190895,13.1834218,45.9082275
Castions di Strada,UDINE,Friuli-Venezia Giulia,Colonna di San Pellegrino,Monumento,2014,2693195132,13.2123027,45.9051201999999
Casto,BRESCIA,Lombardia,Monumento ai Caduti,Monumento,2013,2149734666,10.2924285999999,45.6857884
Casto,BRESCIA,Lombardia,Monumento ai Caduti,Monumento,2013,2149734670,10.3189408,45.6947914
Casto,BRESCIA,Lombardia,Flavio Freddi,"Monumento commemorativo, sacrario",2015,3273774920,10.3135914999999,45.718063
Casto,BRESCIA,Lombardia,Ghidini Narciso e Zubani Faustino,"Monumento commemorativo, sacrario",2015,3514666620,10.2890029,45.6619687999999
Castrignano del Capo,LECCE,Puglia,Benedetto XVI,"Monumento commemorativo, sacrario",2015,3094324819,18.3686873999999,39.7963846999999
Castro,LECCE,Puglia,Cappella della Folgore,"Monumento commemorativo, sacrario",2013,255750445,18.4296185,40.0004233
Catania,CATANIA,Sicilia,Arco di San Benedetto,Monumento,2011,1281247742,15.084757,37.503399
Catania,CATANIA,Sicilia,Carcere di Sant'Agata,Monumento,2011,1294657986,15.0841525999999,37.5071246999999
Catania,CATANIA,Sicilia,Casa di Loreto,Monumento,2011,1281218328,15.0818461999999,37.5005335999999
Catania,CATANIA,Sicilia,Cucine dei Benedettini,Monumento,2011,1282897532,15.0790639,37.5048075999999
Catania,CATANIA,Sicilia,Cucine Rinascimentali,Monumento,2011,1282912092,15.0786321,37.5039181
Catania,CATANIA,Sicilia,Fontana dei Sette Canali,Monumento,2011,1281268111,15.0871409,37.5019338
Catania,CATANIA,Sicilia,Ipogeo Romano,Monumento,2011,1282965326,15.0800795999999,37.5136066
Catania,CATANIA,Sicilia,La Statua,Monumento,2011,579295426,15.0960405,37.5036953999999
Catania,CATANIA,Sicilia,Mausoleo della Leucatia,Monumento,2015,3820149077,15.0887002999999,37.5406174
Catania,CATANIA,Sicilia,Monumento a Vincenzo Bellini,Monumento,2015,277200635,15.0866468,37.5075159
Catania,CATANIA,Sicilia,Museo Emilio Greco,Monumento,2014,1637469674,15.084156,37.5027636
Catania,CATANIA,Sicilia,Porta di Carlo V (gié dei Canali),Monumento,2011,1281268114,15.0869666,37.5015018
Catania,CATANIA,Sicilia,Ratto di Proserpina,Monumento,2015,3611749176,15.0987203,37.5064198999999
Catania,CATANIA,Sicilia,Sala Vaccarini,Monumento,2011,1282897574,15.0793271,37.5051346999999
Catania,CATANIA,Sicilia,Santa Maria della Rotonda,Monumento,2013,1281221114,15.0827586,37.5041427
Catania,CATANIA,Sicilia,statua della Madonna di Ognina,Monumento,2015,3367907658,15.1148802999999,37.5304781
Catania,CATANIA,Sicilia,Statua di Giuseppe Garibaldi,Monumento,2010,305406163,15.0854016,37.5111885999999
Catania,CATANIA,Sicilia,Terme Achilliane,Monumento,2011,1281268118,15.0875996,37.5022082999999
Catania,CATANIA,Sicilia,Velivolo MB326,Monumento,2010,919802722,15.0751529,37.4742384999999
Catania,CATANIA,Sicilia,English Second World War Memorial,"Monumento commemorativo, sacrario",2013,2247134764,15.0653913999999,37.4150842
Catania,CATANIA,Sicilia,English Second World War Memorial,"Monumento commemorativo, sacrario",2013,651273289,15.0653206999999,37.4021836
Catania,CATANIA,Sicilia,Monumento ai Caduti del Mare,"Monumento commemorativo, sacrario",2015,393507449,15.1048419,37.5146519999999
Catania,CATANIA,Sicilia,Monumento al cardinale Dusmet,"Monumento commemorativo, sacrario",2014,300407002,15.0846331,37.5027675999999
Catanzaro,CATANZARO,Calabria,Monumento ai Caduti,Monumento,2014,3170892924,16.5877854999999,38.9107058
Catanzaro,CATANZARO,Calabria,Monumento ai Caduti del Mare,Monumento,2014,2825884627,16.6135893999999,38.8191361
Catanzaro,CATANZARO,Calabria,Monumento ai Caduti della Guerra,Monumento,2015,2825884636,16.6142489,38.8215319999999
Catenanuova,ENNA,Sicilia,Monumento ai Caduti,Monumento,2014,2659306239,14.6900441,37.5671263999999
Cattolica,RIMINI,Emilia-Romagna,Monumento alla Pace,Monumento,2013,2489750685,12.744191,43.9635687999999
Cattolica,RIMINI,Emilia-Romagna,Monumento alla Pace,Monumento,2013,2489750685,12.744191,43.9635687999999
Cava de' Tirreni,SALERNO,Campania,Monumento ai Caduti di tutte le guerre,"Monumento commemorativo, sacrario",2012,1783518104,14.7064170999999,40.7002438
Cavalese,TRENTO,Trentino-Alto Adige,Luogo di nascita di Giovanni Antonio Scopoli,"Monumento commemorativo, sacrario",2011,859560024,11.4605862999999,46.2910507
Cavarzere,VENEZIA,Veneto,Colonna Marciana,Monumento,2013,2422177364,12.0836912,45.1366911
Cavarzere,VENEZIA,Veneto,Monumento ai Bersaglieri,Monumento,2013,2421900450,12.0834998,45.134754
Cavasso Nuovo,PORDENONE,Friuli-Venezia Giulia,Monumento ai Caduti,Monumento,2011,1431010027,12.7685417999999,46.1940468999999
Cavedine,TRENTO,Trentino-Alto Adige,chiesetta,Monumento,2014,2794098225,10.9729346,45.9959665
Cazzago Brabbia,VARESE,Lombardia,In memoria del cimitero vecchio di Cazzago Brabb,"Monumento commemorativo, sacrario",2011,1318781662,8.7294756,45.7983261999999
Cedegolo,BRESCIA,Lombardia,Cimitero della Guerra,"Monumento commemorativo, sacrario",2009,456042243,10.4158089999999,46.0652759
Cefalu',PALERMO,Sicilia,Monumento ai Caduti,Monumento,2013,2573426652,14.0213363999999,38.0351572
Ceglie Messapica,BRINDISI,Puglia,Calvario,Monumento,2015,3441007007,17.5182779999999,40.6443554
Ceglie Messapica,BRINDISI,Puglia,Statua San Francesco d'Assisi,Monumento,2015,3447061403,17.5181006,40.6443341
Ceglie Messapica,BRINDISI,Puglia,Statua San Pio da Pietralcina,Monumento,2015,3887338921,17.5103240999999,40.6482657999999
Ceglie Messapica,BRINDISI,Puglia,Statua Sant'Antonio,Monumento,2015,3749743724,17.5157598999999,40.6470411
Ceglie Messapica,BRINDISI,Puglia,Monumento ai Caduti,"Monumento commemorativo, sacrario",2015,2122333454,17.5138150999999,40.6473826
Ceglie Messapica,BRINDISI,Puglia,Statua San Paolo della Croce,"Monumento commemorativo, sacrario",2015,3422260217,17.5186941,40.6403891
Cellatica,BRESCIA,Lombardia,Monumento ai Caduti,Monumento,2014,2793759717,10.1801718,45.5843039
Cellatica,BRESCIA,Lombardia,Riva Vittorio,"Monumento commemorativo, sacrario",2015,3884092331,10.1931531,45.5893206
Celle di Bulgheria,SALERNO,Campania,Casa del Canonico Antonio Maria De Luca,Monumento,2012,1704137785,15.4049564,40.0945824
Celle di Bulgheria,SALERNO,Campania,Monumento ai caduti in guerra,"Monumento commemorativo, sacrario",2012,1711474362,15.4040693,40.0959647
Celle di Bulgheria,SALERNO,Campania,Padre Pio,"Monumento commemorativo, sacrario",2012,1968608082,15.3789677,40.0947931999999
Cellino San Marco,BRINDISI,Puglia,Monumento ai Caduti,Monumento,2015,3405249978,17.9651953999999,40.4719415
Centallo,CUNEO,Piemonte,Eroi Alpini,Monumento,2012,1730573258,7.5848171,44.4988735
Centallo,CUNEO,Piemonte,G. B. Michelini,"Monumento commemorativo, sacrario",2012,1730573265,7.585715,44.4994471999999
Ceranesi,GENOVA,Liguria,Lapide partigiana Giuseppe Gallesi,"Monumento commemorativo, sacrario",2016,3953789383,8.81793309999999,44.5167452
Ceres,TORINO,Piemonte,Ai Caduti,"Monumento commemorativo, sacrario",2012,1757226333,7.3888617,45.3155542
Ceres,TORINO,Piemonte,Ai partigiani,"Monumento commemorativo, sacrario",2012,1757228578,7.3973498,45.3039159
Cerete,BERGAMO,Lombardia,Cappella Marinoni,Monumento,2012,1801497859,9.9954103,45.8671547
Cerete,BERGAMO,Lombardia,Santuario,Monumento,2012,1801554721,9.99104099999999,45.8741972999999
Cerignola,FOGGIA,Puglia,Arco della Rimembranza,Monumento,2009,412741608,15.9032690999999,41.2628683
Cerignola,FOGGIA,Puglia,Mons. Palladino,Monumento,2011,1542016623,15.8967974,41.2634364
Cerignola,FOGGIA,Puglia,San Francesco d'Assisi,Monumento,2010,649113344,15.9079476,41.2639172
Cerignola,FOGGIA,Puglia,San Gerardo,Monumento,2010,1061541050,15.8971476,41.2670827999999
Cermenate,COMO,Lombardia,Statua della Madonna,"Monumento commemorativo, sacrario",2014,1982897150,9.0780831,45.6956411
Cermenate,COMO,Lombardia,Statua di Padre Pio,"Monumento commemorativo, sacrario",2010,711758381,9.0774948,45.6968679
Cernusco sul Naviglio,MILANO,Lombardia,Baco da Seta,Monumento,2015,2960920462,9.3293707,45.5237814999999
Cernusco sul Naviglio,MILANO,Lombardia,Bruco,Monumento,2014,2960920463,9.3282849,45.5251383
Cernusco sul Naviglio,MILANO,Lombardia,Tuba Mirum,Monumento,2015,2497655138,9.333161,45.5247499999999
Cernusco sul Naviglio,MILANO,Lombardia,Monumento in Ricordo dei Partigiani Uccisi Ribol,"Monumento commemorativo, sacrario",2015,2223187797,9.3309693,45.5195799999999
Cerreto Laziale,ROMA,Lazio,MiddleAges Tower,Monumento,2012,1834798374,12.98269,41.9451477
Certaldo,FIRENZE,Toscana,Statua di Giovanni Boccaccio,Monumento,2012,1865559457,11.0410343,43.5477896
Cervarese Santa Croce,PADOVA,Veneto,Monumento ai caduti di un bombardamento della Se,"Monumento commemorativo, sacrario",2012,1493224781,11.7050383,45.3788713
Cervarese Santa Croce,PADOVA,Veneto,Statua di Sant'Antonio da Padova,"Monumento commemorativo, sacrario",2012,1721470340,11.7064980999999,45.3765173999999
Cervinara,AVELLINO,Campania,Monumento ai Caduti,"Monumento commemorativo, sacrario",2013,2380688283,14.6131662,41.0212380999999
Cervinara,AVELLINO,Campania,Statua di Gesé di Nazaret,"Monumento commemorativo, sacrario",2014,2744903151,14.5988285999999,41.0191902999999
Cesano Maderno,MONZA E DELLA BRIANZA,Lombardia,Arco,Monumento,2015,3615486137,9.1646405,45.6324085999999
Cesaro',MESSINA,Sicilia,Cristo della Montagna,Monumento,2015,3362085372,14.7197489,37.8435588999999
Challand-Saint-Anselme,AOSTA,Valle d'Aosta,Monumento ai Caduti,Monumento,2012,1802417656,7.7356723,45.7155691
Challand-Saint-Anselme,AOSTA,Valle d'Aosta,Monumento ai Caduti,Monumento,2013,1802417657,7.7367603,45.7162091
Challand-Saint-Anselme,AOSTA,Valle d'Aosta,Ai martiri per la liberté,"Monumento commemorativo, sacrario",2012,1818704686,7.7489721,45.7198387999999
Challand-Saint-Anselme,AOSTA,Valle d'Aosta,Bonin Angelo,"Monumento commemorativo, sacrario",2013,1341205266,7.7586101,45.715339
Challand-Saint-Anselme,AOSTA,Valle d'Aosta,Dufour Annetta 1923-1944,"Monumento commemorativo, sacrario",2013,1323398286,7.7713818,45.7147828
Challand-Saint-Anselme,AOSTA,Valle d'Aosta,Muraro Ottorino 176^ Brg Garibaldi,"Monumento commemorativo, sacrario",2015,3623579686,7.7415564,45.7206599
Challand-Saint-Anselme,AOSTA,Valle d'Aosta,On. Dott. Alfonso Farinet,"Monumento commemorativo, sacrario",2013,2452033768,7.7360048,45.715704
Challand-Saint-Anselme,AOSTA,Valle d'Aosta,Targa a ricordo della costruzione della strada p,"Monumento commemorativo, sacrario",2013,2222121504,7.7369856,45.7167516
Challand-Saint-Victor,AOSTA,Valle d'Aosta,Stambecco,Monumento,2015,3724861536,7.7102414,45.6875391
Challand-Saint-Victor,AOSTA,Valle d'Aosta,Challand S.V. ai suoi caduti,"Monumento commemorativo, sacrario",2012,1885091084,7.7062908,45.6897481
Champorcher,AOSTA,Valle d'Aosta,Pierino Danna 1943-1999,"Monumento commemorativo, sacrario",2012,1919170280,7.5444287,45.6142582
Chatillon,AOSTA,Valle d'Aosta,Monte Cervino,Monumento,2012,1855365167,7.6048042,45.7484658999999
Chatillon,AOSTA,Valle d'Aosta,Torre di Conoz XIV sec,Monumento,2015,3022544265,7.61077,45.7535128
Chatillon,AOSTA,Valle d'Aosta,Hans Marguerettaz,"Monumento commemorativo, sacrario",2012,1841080393,7.6451972,45.8125611
Chatillon,AOSTA,Valle d'Aosta,Morts pour la liberté,"Monumento commemorativo, sacrario",2013,2515256448,7.587058,45.7455882
Chatillon,AOSTA,Valle d'Aosta,"Sara Chasseur, 1969-2003","Monumento commemorativo, sacrario",2012,1966713450,7.6595998,45.7998011999999
Chiaramonte Gulfi,RAGUSA,Sicilia,Arco dell'Annunziata,Monumento,2015,3826698633,14.7037486,37.0302832
Chiavari,GENOVA,Liguria,Statua di Mazzini,Monumento,2015,3610446820,9.3245384,44.3173049
Chies d'Alpago,BELLUNO,Veneto,Monumento ai Caduti,Monumento,2012,1868690887,12.3927498,46.1653166999999
Chiesina Uzzanese,PISTOIA,Toscana,Monumento ai Caduti,Monumento,2015,3350521201,10.7192493,43.8389285
Chiesina Uzzanese,PISTOIA,Toscana,Ricordo del Grande Giubileo del 2000,Monumento,2015,3360551016,10.718878,43.8392601999999
Chieti,CHIETI,Abruzzo,Statua di San Francesco,Monumento,2012,1508565570,14.1773561,42.3510104
Chions,PORDENONE,Friuli-Venezia Giulia,Ai Caduti,Monumento,2013,2525485350,12.7765340999999,45.8895965999999
Chions,PORDENONE,Friuli-Venezia Giulia,Ai Caduti,Monumento,2013,2541547898,12.7462965,45.8430050999999
Chiusa di Pesio,CUNEO,Piemonte,Castello di ‘Mirabello’,Monumento,2011,1389297475,7.6821574,44.3254896999999
Chiusa di Pesio,CUNEO,Piemonte,Villa di Caccia di ‘Mombrisone’,Monumento,2011,1389297477,7.6658496,44.3199632999999
Chiusa di Pesio,CUNEO,Piemonte,Sacrario Partigiano di Certosa di Pesio,"Monumento commemorativo, sacrario",2013,2414510347,7.6624338,44.2390192
Chiusa di San Michele,TORINO,Piemonte,Chiusa San Michele ai suoi Caduti,"Monumento commemorativo, sacrario",2015,3790045713,7.324758,45.1043679
Chiusanico,IMPERIA,Liguria,supposed Columbus family's origin place,"Monumento commemorativo, sacrario",2011,1286612359,7.9925169,43.9706125
Ciampino,ROMA,Lazio,Monumento ai caduti di tutte le guerre,"Monumento commemorativo, sacrario",2013,2103370529,12.6004657,41.8001611999999
Cianciana,AGRIGENTO,Sicilia,Ai Zolfatai di Cianciana,"Monumento commemorativo, sacrario",2013,2313403655,13.4365438,37.5194807
Cianciana,AGRIGENTO,Sicilia,Alessio Di Giovanni,"Monumento commemorativo, sacrario",2013,2313403656,13.4359489,37.5196872
Cianciana,AGRIGENTO,Sicilia,Monumento ai Caduti,"Monumento commemorativo, sacrario",2013,2313349679,13.4329002,37.5214982999999
Cibiana di Cadore,BELLUNO,Veneto,Monumento ai Caduti,Monumento,2014,2987875485,12.2906154,46.3917864
Cicerale,SALERNO,Campania,Monumento ai Caduti,"Monumento commemorativo, sacrario",2013,2450055221,15.130531,40.3438097
Cimego,TRENTO,Trentino-Alto Adige,Monumento ai Caduti,Monumento,2012,2028320546,10.6147059,45.9203677
Cingoli,MACERATA,Marche,chiesa del XII secolo,Monumento,2013,2599566566,13.2203613,43.3714043
Cingoli,MACERATA,Marche,Cristo delle Marche,Monumento,2012,1743999879,13.2377698,43.3428095
Cinisello Balsamo,MILANO,Lombardia,"Monumento ai Caduti per la Liberté, la Democraz",Monumento,2015,3668913227,9.2167331,45.5528667
Cinisello Balsamo,MILANO,Lombardia,Monumento al Calciatore,Monumento,2015,3668940287,9.2314848,45.5573306
Cinisello Balsamo,MILANO,Lombardia,Caduti della Guerra,"Monumento commemorativo, sacrario",2012,1777251102,9.22290259999999,45.550814
Cintano,TORINO,Piemonte,Il Basilisco,Monumento,2011,1231082782,7.6899086,45.4286863
Cislago,VARESE,Lombardia,Monumento ai Caduti,"Monumento commemorativo, sacrario",2011,985220818,8.9715536,45.6591213
Cison di Valmarino,TREVISO,Veneto,Bosco delle Penne Mozze,"Monumento commemorativo, sacrario",2015,3379742322,12.1513905,45.9891304
Citta' di Castello,PERUGIA,Umbria,Ai Bersaglieri,Monumento,2012,1714258630,12.242539,43.4537763
Citta' di Castello,PERUGIA,Umbria,XI Settembre 1860,Monumento,2014,1491248821,12.2397525,43.458384
Citta' di Castello,PERUGIA,Umbria,Venanzio Gabriotti,"Monumento commemorativo, sacrario",2014,1572272828,12.2539463,43.4632508999999
Cittadella,PADOVA,Veneto,Gruppo Alpini Cittadella,Monumento,2014,2791729387,11.7870656,45.6500689
Cittaducale,RIETI,Lazio,Torre Angioina,Monumento,2013,2532674161,12.9521275,42.3884151
Cittareale,RIETI,Lazio,La Biffa,Monumento,2012,1839600784,13.1125266,42.5862971999999
Cividale del Friuli,UDINE,Friuli-Venezia Giulia,Adelaide Ristori,Monumento,2013,1150619200,13.4295738999999,46.0931499
Cividale del Friuli,UDINE,Friuli-Venezia Giulia,Monumento agli Alpini,Monumento,2014,2616781929,13.4258031,46.0916793
Cividale del Friuli,UDINE,Friuli-Venezia Giulia,Monumento ai Caduti,Monumento,2014,2616781934,13.4265939,46.0945447
Cividale del Friuli,UDINE,Friuli-Venezia Giulia,Monumento ai Caduti,Monumento,2014,2639397093,13.4370416,46.0710564999999
Cividale del Friuli,UDINE,Friuli-Venezia Giulia,Monumento ai Caduti,Monumento,2014,2640276807,13.4488363999999,46.0412021
Cividale del Friuli,UDINE,Friuli-Venezia Giulia,Monumento ai Caduti,"Monumento commemorativo, sacrario",2014,2667766539,13.4750333999999,46.1021205999999
Cividale del Friuli,UDINE,Friuli-Venezia Giulia,Monumento ai Caduti,"Monumento commemorativo, sacrario",2014,2667766540,13.4562092,46.1056271
Cividale del Friuli,UDINE,Friuli-Venezia Giulia,Monumento ai partigiani osovani,"Monumento commemorativo, sacrario",2014,2670485141,13.4561540999999,46.0298877
Civita d'Antino,L'AQUILA,Abruzzo,Santuario Madonna della Ritornata,Monumento,2013,2562966590,13.4998711,41.8684079
Civitavecchia,ROMA,Lazio,Monumento dei Caduti,Monumento,2014,2783969134,11.793049,42.0904588
